stop_id,stop_code,stop_name,stop_desc,stop_lat,stop_lon,zone_id,stop_url,location_type,parent_station,wheelchair_boarding
421,,SPRINGFIELD & NORTHCLIFF (NODE ONLY,Springfield St & N Garden St,39.780449,-84.130158,,,,,0
10003,,W 3RD ST @ N PERRY ST,W 3rd St & N Wilkinson St,39.758892,-84.195975,,,,,0
10005,,W 3RD ST @ N ST MARYS ST,W 3rd St & N Saint Marys St,39.758362,-84.199271,,,,,0
10007,,W 3RD ST @ GRIMES ST,,39.757043,-84.207543,,,,,0
10008,,W 3RD ST @ SWEETMAN ST,W 3rd St & Sweetman St,39.756744,-84.209385,,,,,0
10009,,W 3RD ST @ N WILLIAMS ST,W 3rd St & N Williams St,39.756286,-84.211657,,,,,0
10010,,W 3RD ST @ N BROADWAY ST,,39.756028,-84.213645,,,,,0
10011,,W 3RD ST @ N PAUL LAWRENCE DUNBAR,,39.75538,-84.217613,,,,,0
10012,,W 3RD ST @ N EUCLID AV,,39.754901,-84.220368,,,,,0
10014,,W 3RD ST @ JAMES H MCGEE BLVD,,39.754386,-84.223597,,,,,0
10015,,W 3RD ST @ CLEMMER ST,,39.753956,-84.22615,,,,,0
10016,,W 3RD ST @ ORCHARD AV,,39.753573,-84.228433,,,,,0
10017,,W 3RD ST @ N WOODWARD AV,Us 35 & W 3rd St,39.753266,-84.229928,,,,,0
10021,,W 3RD ST @ ANNA ST,W 3rd St & Us 35,39.752204,-84.236343,,,,,0
10023,,W 3RD ST @ BROOKLYN AV,Us 35 & Brooklyn Av,39.751628,-84.239792,,,,,0
10026,,W 3RD ST @ N HALLOWAY ST,Us 35 & N Halloway St,39.750773,-84.244948,,,,,0
10028,,W 3RD ST @ N DECKER AV,W 3rd St & S Upland Av,39.750323,-84.247656,,,,,0
10032,,W 3RD ST @ N GETTYSBURG AV,Us 35 & S Hatfield St,39.749495,-84.252611,,,,,0
10033,,W 3RD ST @ 4200 W 3RD ST,,39.749063,-84.255742,,,,,0
10034,,W 3RD ST @ ELMHURST RD,W 3RD ST & MELWOOD AVE,39.748624,-84.258328,,,,,0
10035,,W 3RD ST @ ALMOND AV,Us 35 & W 3rd St,39.747937,-84.262086,,,,,0
10037,,W 3RD ST @ MIA AV,,39.747388,-84.265737,,,,,0
10039,,W 3RD ST @ CROWN AV,,39.74683,-84.26924,,,,,0
10040,,W 3RD ST @ VICTORY DR,,39.746761,-84.271527,,,,,0
10041,,W 3RD ST @ CHAIN AV,,39.746703,-84.274162,,,,,0
10043,,W 3RD ST @ ELKINS AV,,39.746686,-84.277558,,,,,0
10045,,W 3RD ST @ HANNA AV,,39.746643,-84.280496,,,,,0
10046,,W 3RD ST @ MILLER AV,,39.74662,-84.28171,,,,,0
10047,,W 3RD ST @ N LANSDOWNE AV,,39.746602,-84.284412,,,,,0
10050,,W 3RD ST @ OLIVE RD,,39.746528,-84.292574,,,,,0
10051,,3RD @ IONA,,39.746323,-84.294303,,,,,0
10052,,W 3RD ST @ S NORTHAMPTON RD,,39.746361,-84.291404,,,,,0
10053,,W 3RD ST @ US 35,Us 35 & Lensdale Av,39.746403,-84.288141,,,,,0
10054,,W 3RD ST @ TAFT AV,W 3rd St & Lensdale Av,39.746425,-84.285809,,,,,0
10055,,W 3RD ST @ DAVENPORT AV,,39.746441,-84.284264,,,,,0
10056,,W 3RD ST @ MILLER AV,W 3RD ST & MILLER AVE,39.746354,-84.282379,,,,,0
10058,,W 3RD ST @ POMEROY AV,,39.746476,-84.2794,,,,,0
10059,,W 3RD ST @ HOLLAND AV,,39.74652,-84.277082,,,,,0
10060,,W 3RD ST @ CHAIN AV,,39.746562,-84.274673,,,,,0
10063,,W 3RD ST @ LISCUM DR,,39.746726,-84.268669,,,,,0
10064,,W 3RD ST @ MIA AV,Us 35 & Whitmore Av,39.747146,-84.265629,,,,,0
10066,,W 3RD ST @ ALMOND AV,,39.747789,-84.2623,,,,,0
10069,,W 3RD ST @ 4200 W 3RD ST,Us 35 & Greenleaf Dr,39.74874,-84.256118,,,,,0
10070,,W 3RD ST @ S GETTYSBURG AV,Us 35 & Melwood Av,39.74919,-84.253387,,,,,0
10072,,W 3RD ST @ S ALDER ST,Us 35 & N Alder St,39.749667,-84.250586,,,,,0
10074,,W 3RD ST @ DECKER AV,Us 35 & N Decker Av,39.750055,-84.248232,,,,,0
10076,,W 3RD ST @ S HALLOWAY ST,W 3rd St & N Halloway St,39.750496,-84.245607,,,,,0
10077,,W 3RD ST @ S UPPER AV,Us 35 & Upper Av,39.750901,-84.24317,,,,,0
10079,,W 3RD ST @ ABBEY AV,Us 35 & Abbey Av,39.751396,-84.24018,,,,,0
10080,,W 3RD ST @ INLAND AV,W 3rd St & Chester Av,39.751756,-84.238014,,,,,0
10081,,W 3RD ST @ BISH AV,W 3rd St & Bish Av,39.75216,-84.23559,,,,,0
10084,,W 3RD ST @ ORCHARD AV,,39.753313,-84.22902,,,,,0
10086,,W 3RD ST @ GROSVENOR AV,,39.753695,-84.226692,,,,,0
10087,,W 3RD ST @ JAMES H MCGEE BLVD,W 3rd St & S Antioch St,39.754148,-84.223641,,,,,0
10089,,W 3RD ST @ EUCLID AV,W 3rd St & N Euclid Av,39.754742,-84.219921,,,,,0
10090,,W 3RD ST @ S PAUL LAWRENCE DUNB,W 3rd St & S Summit St,39.75502,-84.218296,,,,,0
10093,,W 3RD ST @ S WILLIAM ST,W 3rd St & N Williams St,39.756036,-84.212151,,,,,0
10094,,W 3RD ST @ MOUND ST,,39.75665,-84.209133,,,,,0
10095,,W 3RD ST @ BANK ST,,39.757104,-84.206201,,,,,0
10097,,W 3RD ST @ SINCLAIR COLLEGE,W 3rd St & N Saint Marys St,39.758273,-84.198777,,,,,0
10098,,W 3RD ST @ S PERRY ST,W 3rd St & N Wilkinson St,39.758749,-84.195868,,,,,0
10104,,WYOMING ST @ BROWN ST,Wyoming St & Magnolia Ln,39.745313,-84.183292,,,,,0
10105,,WYOMING ST @ ALBERTA ST,,39.745211,-84.180291,,,,,0
10106,,WYOMING ST @ JAY ST,,39.745803,-84.177496,,,,,0
10108,,WYOMING ST @ WAYNE AV,Wyoming St & Wayne Av,39.747518,-84.172356,,,,,0
10112,,WYOMING ST @ MISSOURI AV,,39.747161,-84.165361,,,,,0
10113,,WYOMING ST @ ST PAUL AV,,39.747047,-84.162975,,,,,0
10115,,WYOMING ST @ VIRGINIA AV,,39.746867,-84.159985,,,,,0
10117,,WYOMING ST @ EPWORTH AV,,39.746656,-84.15616,,,,,0
10119,,PHILLIPS AV @ ALICE ST,,39.743942,-84.155743,,,,,0
10120,,PHILLIPS AV @ MUNCIE ST,,39.742357,-84.155938,,,,,0
10121,,PHILLIPS AV @ CLARENCE ST,,39.740483,-84.156078,,,,,0
10123,,WAYNE AVE @ CREIGHTON,,39.739149,-84.15467,,,,,0
10124,,ARBOR AV @ WAYNE AV,,39.738632,-84.151648,,,,,0
10125,,WATERVLIET AV @ REVERE AV,,39.737664,-84.150068,,,,,0
10126,,WATERVLIET AV @ KING AV,,39.73644,-84.148133,,,,,0
10127,,WATERVLIET AV @ NILL AV,,39.73566,-84.146912,,,,,0
10128,,WATERVLIET AV @ WESTFIELD AV,,39.734065,-84.145103,,,,,0
10130,,WATERVLIET AV @ FAUVER AV,,39.731661,-84.142728,,,,,0
10131,,WATERVLIET AV @ S SMITHVILLE RD,,39.730575,-84.141244,,,,,0
10133,,WATERVLIET AV @ BELLAIRE AV,,39.72886,-84.138743,,,,,0
10135,,WATERVLIET AV @ KINGSTON AV,,39.727316,-84.136623,,,,,0
10136,,WATERVLIET AV @ WAYLAND AV,,39.726194,-84.135034,,,,,0
10138,,WATERVLIET AV @ CULVER AV,,39.724207,-84.132451,,,,,0
10140,,PATTERSON RD @ REMBRANDT BLVD,,39.722909,-84.129998,,,,,0
10141,,PATTERSON RD @ FLESHER AV,,39.722715,-84.126313,,,,,0
10143,,PATTERSON RD @ WOODMAN,Rainbow Dr & Farmside Dr,39.722456,-84.121997,,,,,0
10144,,RAINBOW DR @ E BATAAN DR,Rainbow Dr & E Bataan Dr,39.721492,-84.122514,,,,,0
10145,,RAINBOW DR @ WOODMAN DR,Rainbow Dr & Woodman Dr,39.720911,-84.123938,,,,,0
10146,,PATTERSON RD @ WOODMAN DR,,39.722716,-84.123657,,,,,0
10147,,PATTERSON RD @ FLESHER AV,,39.722812,-84.125985,,,,,0
10149,,PATTERSON RD @ NORTON AV,,39.723002,-84.129512,,,,,0
10151,,WATERVLIET AV @ CULVER AV,,39.724228,-84.132188,,,,,0
10153,,WATERVLIET AV @ WAYLAND AV,,39.726035,-84.134738,,,,,0
10154,,WATERVLIET AV @ KINGSTON AV,,39.727374,-84.136529,,,,,0
10155,,WATERVLIET AV @ BELLAIRE AV,,39.728783,-84.138508,,,,,0
10157,,WATERVLIET AV @ S SMITHVILLE RD,,39.730444,-84.140883,,,,,0
10158,,WATERVLIET AV @ FAUVER AV,,39.731482,-84.142407,,,,,0
10160,,WATERVLIET AV @ ROSEMONT BLVD,,39.733918,-84.144817,,,,,0
10161,,WATERVLIET AV @ WOODBINE AV,,39.735394,-84.146363,,,,,0
10162,,WATERVLIET AV @ KING AV,,39.736071,-84.147704,,,,,0
10164,,WATERVLIET AV @ REVERE AV,,39.73753,-84.149785,,,,,0
10165,,ARBOR AV @ WAYNE AV,,39.73894,-84.151864,,,,,0
10166,,ARBOR AV @ CLARENCE ST,,39.740136,-84.151873,,,,,0
10167,,ARBOR AV @ MUNCIE ST,,39.741938,-84.15168,,,,,0
10168,,ARBOR AV @ ALICE ST,,39.743593,-84.151475,,,,,0
10169,,ARBOR AV @ ARGYLE ST,,39.745227,-84.151345,,,,,0
10170,,ARBOR AV @ WYOMING ST,,39.746197,-84.151304,,,,,0
10171,,WYOMING ST @ CREIGHTON AV,,39.746506,-84.153215,,,,,0
10172,,WYOMING ST @ ST NICHOLAS AV,,39.746645,-84.155879,,,,,0
10174,,WYOMING ST @ ST JOSEPH AV,,39.746862,-84.159595,,,,,0
10176,,WYOMING ST @ ILLINOIS AV,,39.747014,-84.162562,,,,,0
10177,,WYOMING ST @ NASSAU ST,,39.74716,-84.164877,,,,,0
10179,,WYOMING ST @ STEELE AV,,39.747389,-84.167906,,,,,0
10181,,WYOMING ST @ HAWKER ST,,39.747568,-84.170422,,,,,0
10182,,WYOMING ST @ WAYNE AV,,39.747626,-84.172037,,,,,0
10184,,WYOMING ST @ CROSS ST,,39.746625,-84.175266,,,,,0
10185,,WYOMING ST @ JAY ST,,39.746078,-84.17764,,,,,0
10186,,WYOMING ST @ ALBERTA ST,,39.745377,-84.180093,,,,,0
10187,,WYOMING ST @ BROWN ST,,39.745425,-84.182709,,,,,0
10188,,WYOMING ST @ COLBY LN,,39.74514,-84.185082,,,,,0
10192,,N MAIN ST @ PIONEER ST,N Main St & Five Oaks Av,39.773828,-84.198416,,,,,0
10193,,N MAIN ST @ VINCENT ST,,39.774581,-84.19956,,,,,0
10194,,N MAIN ST @ HELENA ST,,39.77527,-84.200364,,,,,0
10196,,N MAIN ST @ E MUMMA AV,,39.777708,-84.20348,,,,,0
10197,,N MAIN ST @ E BURTON AV,,39.778705,-84.20467,,,,,0
10199,,N MAIN ST @ RIDGE AV,,39.780216,-84.206687,,,,,0
10201,,N MAIN ST @ E HUDSON ST,,39.782977,-84.209054,,,,,0
10202,,N MAIN ST @ E FAIRWIEW AV,,39.784896,-84.210208,,,,,0
10203,,N MAIN ST @ E PARKWOOD DR,,39.786808,-84.211606,,,,,0
10204,,N MAIN ST @ E SHADYSIDE DR,,39.788335,-84.212651,,,,,0
10206,,N MAIN ST @ HILLCREST AV,,39.791081,-84.214207,,,,,0
10210,,N MAIN ST @ KNECHT DR,,39.794205,-84.215727,,,,,0
10213,,N MAIN ST @ E SIEBENTHALER AV,Hwy 48 & N Main St,39.798366,-84.217657,,,,,0
10215,,N MAIN ST @ E MELFORD AV,,39.80302,-84.220387,,,,,0
10216,,N MAIN ST @ CASTLEWOOD AV,Hwy 48 & Castlewood Av,39.804849,-84.221536,,,,,0
10217,,N MAIN ST @ NOTTINGHAM PL,,39.805659,-84.222189,,,,,0
10219,,N MAIN ST @ ALLERTON RD,,39.806844,-84.22306,,,,,0
10221,,N MAIN ST @ FOREST PARK DR,,39.808724,-84.224421,,,,,0
10222,,N MAIN ST @ JULIA AV,,39.809886,-84.22526,,,,,0
10223,,N MAIN ST @ GREENHILL RD,,39.811384,-84.226319,,,,,0
10224,,N MAIN ST @ SHOUP MILL RD,,39.812415,-84.226982,,,,,0
10228,,N MAIN ST @ ERDIEL DR,Hwy 48 & N Main St,39.817178,-84.231546,,,,,0
10230,,MAIN & PHILADELPHIA,,39.818453,-84.23368,,,,,0
10231,,MACY ST @ PHILADELPHIA DR,MACY ST & N MAIN ST,39.817454,-84.235067,,,,,0
10233,,N MAIN ST @ MACY ST,,39.818573,-84.233606,,,,,0
10234,,N MAIN ST @ ERDIEL DR,,39.817372,-84.232001,,,,,0
10236,,N MAIN ST @ MARKEY RD,,39.814826,-84.228948,,,,,0
10237,,N MAIN ST @ GREENHILL RD,,39.811564,-84.226625,,,,,0
10239,,N MAIN ST @ JULIA AV,Hwy 48 & Greenhill Rd,39.809904,-84.225424,,,,,0
10241,,N MAIN ST @ CAVENDISH DR,,39.808234,-84.224209,,,,,0
10242,,N MAIN ST @ ALLERTON RD,,39.806909,-84.223273,,,,,0
10243,,N MAIN ST @ W NOTTINGHAM RD,,39.805963,-84.222631,,,,,0
10244,,N MAIN ST @ CASTLEWOOD AV,,39.804949,-84.221924,,,,,0
10245,,N MAIN ST @ W MELFORD AV,,39.802599,-84.22019,,,,,0
10247,,N MAIN ST @ REDDER AV,,39.800986,-84.219189,,,,,0
10252,,N MAIN ST @ CLIFF ST,,39.792545,-84.215214,,,,,0
10253,,N MAIN ST @ HILLCREST AV,N MAIN ST & W HILLCREST AVE,39.791243,-84.214587,,,,,0
10254,,N MAIN ST @ MARSON DR,,39.789553,-84.213604,,,,,0
10255,,N MAIN ST @ W SHADYSIDE DR,,39.788534,-84.212943,,,,,0
10256,,N MAIN ST @ PARKWOOD DR,,39.786887,-84.211812,,,,,0
10257,,N MAIN ST @ W FAIRVIEW AV,,39.785222,-84.210692,,,,,0
10258,,N MAIN ST @ HUDSON AV,,39.783275,-84.209392,,,,,0
10259,,N MAIN ST @ SANTA CLARA AV,,39.781393,-84.208198,,,,,0
10261,,N MAIN ST @ DELAWARE AV,,39.779829,-84.206318,,,,,0
10262,,N MAIN ST @ W BURTON AV,,39.778632,-84.204824,,,,,0
10263,,N MAIN ST @ W MUMMA AV,,39.777389,-84.203207,,,,,0
10264,,N MAIN ST @ W HELENA ST,,39.77536,-84.200624,,,,,0
10266,,N MAIN ST @ WARDER ST,,39.773339,-84.198122,,,,,0
10267,,N MAIN ST @ W GREAT MIAMI BLVD,,39.772437,-84.196855,,,,,0
10269,,N MAIN ST @ EMMET ST,,39.76646,-84.193641,,,,,0
10270,,N MAIN ST @ WHITE ALLEN AV,,39.767511,-84.19388,,,,,0
10271,,N MAIN ST @ E BABBIT ST,,39.768568,-84.194199,,,,,0
10272,,N MAIN ST @ E GRAND AV,N Main St & Unnamed,39.769798,-84.194451,,,,,0
10275,,N MAIN ST @ GREAT MIAMI BLVD,N Main St & Hwy 48,39.772242,-84.196387,,,,,0
10278,,N MAIN ST @ BABBIT ST,,39.76852,-84.194375,,,,,0
10279,,N MAIN ST @ W MCPHERSON ST,N MAIN ST & W MC PHERSON ST,39.767607,-84.194138,,,,,0
10280,,N MAIN ST @ EMMET ST,,39.766064,-84.193711,,,,,0
10281,,N MAIN ST @ REDWOOD AV,N MAIN ST & NORTHWOOD AVE,39.800001,-84.218505,,,,,0
10303,,GUENTHER RD @ HOOVER AV,GUENTHER RD & HOOVER AVE,39.761471,-84.266336,,,,,0
10304,,HOOVER AV @ WHITMORE AV,HOOVER AVE & MIA AVE,39.76125,-84.265028,,,,,0
10306,,WHITMORE AV @ KAMMER AV,,39.759666,-84.264886,,,,,0
10307,,WHITMORE AV @ OAKRIDGE DR,Whitmore Av & Kammer Av,39.757793,-84.264951,,,,,0
10309,,OAKRIDGE DR @ CLEVERLY RD,,39.757487,-84.261626,,,,,0
10310,,OAKRIDGE DR @ ELMHURST RD,,39.757522,-84.259526,,,,,0
10311,,ELMHURST RD @ SYLVAN DR,,39.75569,-84.259284,,,,,0
10313,,ELMHURST RD @ 2ND ST,,39.753321,-84.259266,,,,,0
10314,,ELMHURST RD @ MIDWAY AV,,39.751473,-84.259219,,,,,0
10318,,ELMHURST RD @ MIDWAY AV,,39.751328,-84.25909,,,,,0
10319,,ELMHURST RD @ 2ND ST,,39.75329,-84.259103,,,,,0
10321,,ELMHURST RD @ SYLVAN DR,,39.755486,-84.259095,,,,,0
10322,,ELMHURST RD @ OAKRIDGE DR,,39.757357,-84.259137,,,,,0
10324,,OAKRIDGE DR @ ALMOND AV,,39.757728,-84.262522,,,,,0
10325,,OAKRIDGE DR @ WHITMORE AV,Oakridge Dr & Circle Rd,39.757758,-84.264586,,,,,0
10326,,WHITMORE AV @ KAMMER AV,,39.759407,-84.264794,,,,,0
10328,,WHITMORE AV @ HOOVER AV,,39.761244,-84.264828,,,,,0
10329,,HOOVER AV @ GUENTHER RD,Hoover Av & Guenther Rd,39.761442,-84.265951,,,,,0
10331,,HOOVER AV @ SCOTTSWOOD RD,Hoover Av & Scottswood Rd,39.761465,-84.278824,,,,,0
10332,,SUMMIT SQ DR @ HOOVER AV,,39.761256,-84.283206,,,,,0
10334,,HOOVER AV @ SCOTTSWOOD RD,,39.761269,-84.279188,,,,,0
10335,,GRAYSTONE DR @ HOOVER AV,,39.761601,-84.2737,,,,,0
10336,,GRAYSTONE DR @ 1132 GRAYSTONE DR,,39.763325,-84.27373,,,,,0
10337,,GRAYSTONE DR @ WHALEY DR,Graystone Dr & Whaley Dr,39.76424,-84.273673,,,,,0
10339,,GRAYSTONE DR @ GARDENDALE AV,,39.766116,-84.272738,,,,,0
10340,,GARDENDALE AV @ AZALEA DR,GARDENDALE AVE & AZALEA DR,39.766097,-84.2702,,,,,0
10341,,GARDENDALE AV @ HONEYBEE DR,,39.766101,-84.267643,,,,,0
10343,,GUENTHER RD @ 4727 GUENTHER RD,Guenther Rd & Dugger Rd,39.762788,-84.266449,,,,,0
10352,,GARLAND AV @ WOODLEY RD,,39.770555,-84.145244,,,,,0
10354,,E 3RD ST @ N QUENTIN AV,,39.766656,-84.141069,,,,,0
10356,,E 3RD ST @ N WESTVIEW AV,,39.766778,-84.143273,,,,,0
10359,,E 3RD ST @ N HEDGES ST,,39.766617,-84.148506,,,,,0
10360,,E 3RD ST @ N IRWIN ST,,39.766296,-84.150848,,,,,0
10361,,E 3RD ST @ N JERSEY ST,,39.765927,-84.153136,,,,,0
10362,,E 3RD ST @ N PHILADELPHIA ST,,39.765465,-84.155767,,,,,0
10363,,3RD @  FINDLAY,,39.765291,-84.157056,,,,,0
10364,,E 3RD ST @ N TORRENCE ST,,39.764951,-84.159263,,,,,0
10366,,E 3RD ST @ N VAN LEAR ST,,39.764635,-84.161955,,,,,0
10367,,E 3RD ST @ LINDEN,E 3rd St & Springfield St,39.763953,-84.165149,,,,,0
10368,,E 3RD ST @ WEBB ST,,39.763695,-84.167101,,,,,0
10369,,E 3RD ST @ HARSHMAN AV,,39.763435,-84.169153,,,,,0
10370,,E 3RD ST @ N TERRY ST,,39.762951,-84.171289,,,,,0
10372,,E 3RD ST @ BATES ST,,39.762277,-84.176011,,,,,0
10373,,E 3RD ST @ N KEOWEE ST,,39.761876,-84.177885,,,,,0
10375,,E 3RD ST @ WEBSTER ST,,39.761163,-84.181922,,,,,0
10377,,E 3RD ST @ MADISON ST,,39.76086,-84.184647,,,,,0
10383,,GADDIS @ HEDGES,,39.769505,-84.14927,,,,,0
10384,,N HEDGES ST @ ELKTON AV,,39.768788,-84.149212,,,,,0
10385,,N HEDGES ST @ E 3RD ST,,39.766594,-84.148608,,,,,0
10387,,E 3RD ST @ KENTON ST,E 3rd St & S Saint Clair St,39.760069,-84.187556,,,,,0
10388,,3RD & WAYNE,E 3rd St & Wayne Av,39.760536,-84.184754,,,,,0
10390,,E 3RD ST @ WEBSTER ST,,39.761105,-84.181843,,,,,0
10392,,E 3RD ST @ S KEOWEE ST,,39.761603,-84.178414,,,,,0
10393,,E 3RD ST @ KEOWEE,,39.76183,-84.176989,,,,,0
10396,,E 3RD ST @ S TERRY ST,E 3rd St & S Beckel St,39.76268,-84.171848,,,,,0
10397,,E 3RD ST @ RINGGOLD ST,,39.763146,-84.169052,,,,,0
10398,,E 3RD ST @ HUFFMAN AV,,39.76336,-84.167855,,,,,0
10399,,E 3RD ST @ LINDEN AV,,39.763719,-84.165622,,,,,0
10400,,E 3RD ST @ S VAN LEAR ST,,39.76415,-84.162791,,,,,0
10403,,3RD @ FINDLAY,,39.765176,-84.15648,,,,,0
10405,,E 3RD ST @ S JERSEY ST,,39.765745,-84.153384,,,,,0
10406,,E 3RD ST @ S IRWIN ST,,39.766122,-84.151061,,,,,0
10407,,E 3RD ST @ S HEDGES ST,,39.76642,-84.148943,,,,,0
10409,,E 3RD ST @ S SPERLING AV,,39.766814,-84.146726,,,,,0
10410,,E 3RD ST @ S WESTVIEW AV,,39.766786,-84.14422,,,,,0
10412,,E 3RD ST @ S QUENTIN AV,,39.766641,-84.141825,,,,,0
10414,,E 3RD ST @ MURRAY DR,,39.765959,-84.139227,,,,,0
10437,,AIRWAY RD @ MERTLAND AV,Airway Rd & Mertland Av,39.76565,-84.135505,,,,,0
10438,,AIRWAY RD @ LA PARRE DR,Airway Rd & La Parre Dr,39.766053,-84.132584,,,,,0
10439,,AIRWAY RD @ HAYDEN AV,Airway Rd & Hayden Av,39.766957,-84.128545,,,,,0
10440,,AIRWAY RD @ 4770 AIRWAY RD,Airway Rd & Baltimore And Ohio Railroad,39.768163,-84.125636,,,,,0
10441,,AIRWAY @ WOODMAN,,39.769087,-84.123639,,,,,0
10442,,AIRWAY RD @ 4717 AIRWAY RD,,39.770358,-84.120584,,,,,0
10444,,AIRWAY RD @ 5206 AIRWAY RD,,39.771774,-84.114283,,,,,0
10445,,AIRWAY RD @ MEEHAN DR,,39.771615,-84.111268,,,,,0
10446,,AIRWAY RD @ SPINNING RD,,39.771495,-84.108968,,,,,0
10447,,AIRWAY RD @ MAVERICK DR,,39.771315,-84.106533,,,,,0
10448,,AIRWAY RD @ HICKAM DR,,39.771027,-84.101401,,,,,0
10449,,COLONEL GLENN HWY @ 4141 COLONEL,,39.773512,-84.086192,,,,,0
10451,,COLONEL GLENN HWY @ GERMANY LN,,39.775028,-84.07722,,,,,0
10453,,UNIVERSITY BLVD @ STUDENT UNION,S MAIN DR,39.779594,-84.066456,,,,,0
10454,,MILLETT HALL,,39.783847,-84.06205,,,,,0
10455,,LOOP RD @ CENTER RD,,39.78038,-84.060041,,,,,0
10456,,COLONEL GLENN HWY @ CENTER RD,,39.778393,-84.059327,,,,,0
10457,,COLONEL GLENN HWY @ MAIN WSU ENTR.,,39.777216,-84.065718,,,,,0
10458,,COLONEL GLENN HWY & 3822 COLONEL GLEN HWY,,39.775966,-84.073262,,,,,0
10461,,COLONEL GLENN HWY & 4200 COLONEL GLENN HWY,,39.773655,-84.086456,,,,,0
10462,,AIRWAY RD & HICKAM DR,,39.771135,-84.101396,,,,,0
10463,,AIRWAY RD @ MAVERICK DR,,39.77144,-84.106206,,,,,0
10464,,AIRWAY RD @ SPINNING RD,,39.771601,-84.10848,,,,,0
10465,,AIRWAY RD @ MEEHAN DR,,39.771718,-84.110926,,,,,0
10468,,AIRWAY RD @ A/F 4914 AIRWAY RD,,39.77053,-84.120767,,,,,0
10469,,AIRWAY RD @ WOODMAN,,39.769658,-84.122781,,,,,0
10470,,AIRWAY RD @ EUBANKS DR,,39.76721,-84.128357,,,,,0
10471,,AIRWAY RD @ DOOLITTLE DR,,39.766041,-84.134918,,,,,0
10475,,JAMES H MCGEE BLVD @ W 1ST ST,N Western Av & W 1st St,39.755967,-84.224976,,,,,0
10476,,JAMES H MCGEE BLVD @ EDISON ST,N Western Av & Edison St,39.757028,-84.225755,,,,,0
10478,,JAMES H MCGEE BLVD @ 444 JAMES H,,39.759126,-84.227652,,,,,0
10480,,KAMMER AV @ N WOODWARD AV,Kammer Av & N Woodward Av,39.759878,-84.230496,,,,,0
10482,,KAMMER AV @ N KILMER ST,Kammer Av & Winters St,39.759884,-84.23264,,,,,0
10484,,GRAMONT AV @ KAMMER AV,Gramont Av & Hoover Av,39.759708,-84.237362,,,,,0
10485,,GRAMONT AV @ HOOVER AV,Gramont Av & Kammer Av,39.761466,-84.237402,,,,,0
10486,,HOOVER AV @ SHOOP AV,Hoover Av & Shoop Av,39.761678,-84.238745,,,,,0
10488,,HOOVER AV @ WESTWOOD AV,Hoover Av & Westwood Av,39.761648,-84.2413,,,,,0
10489,,HOOVER AV @ WALTON AV,Hoover Av & Walton Av,39.761618,-84.243727,,,,,0
10490,,HOOVER AV @ BURLEIGH AV,Hoover Av & Leland Av,39.761606,-84.245894,,,,,0
10491,,HOOVER AV @ CRESTMORE AV,Hoover Av & N Upland Av,39.761594,-84.248084,,,,,0
10492,,HOOVER AV @ CLARKSON AV,Hoover Av & Osmond Av,39.761573,-84.250251,,,,,0
10493,,DELPHOS AV @ HOOVER AV,,39.76106,-84.251388,,,,,0
10494,,DELPHOS AV @ KAMMER AV,,39.759365,-84.250385,,,,,0
10495,,DELPHOS AV @ OAKRIDGE DR,,39.758206,-84.249646,,,,,0
10496,,OAKRIDGE DR @ N UPLAND AV,,39.758061,-84.247322,,,,,0
10499,,OAKRIDGE DR @ WALTON AV,,39.7581,-84.243769,,,,,0
10501,,OAKRIDGE DR @ WESTWOOD AV,,39.758108,-84.241414,,,,,0
10502,,KAMMER AV @ WESTWOOD AV,,39.759452,-84.240919,,,,,0
10503,,KAMMER AV @ SHOOP AV (GRAMONT),,39.759479,-84.238727,,,,,0
10504,,KAMMER AV @ ANNA ST,,39.759497,-84.236324,,,,,0
10505,,KAMMER AV @ MCNARY AV,,39.759524,-84.233977,,,,,0
10507,,KAMMER AV @ N ORCHARD AV,,39.759736,-84.229645,,,,,0
10508,,JAMES H MCGEE BLVD @ N MATHISON,,39.759385,-84.228441,,,,,0
10509,,JAMES H MCGEE BLVD @ ROSEDALE DR,,39.758631,-84.227445,,,,,0
10510,,JAMES H MCGEE BLVD @ EDISON ST,,39.757065,-84.226121,,,,,0
10511,,JAMES H MCGEE BLVD @ 1ST ST,,39.756052,-84.225376,,,,,0
10512,,WAYNE AV @ E 5TH ST,,39.757279,-84.18237,,,,,0
10514,,XENIA AV @ KEOWEE,,39.75248,-84.174382,,,,,0
10515,,XENIA AV @ CORWIN ST,,39.752503,-84.172686,,,,,0
10516,,XENIA AV @ ANGEL CT,,39.752572,-84.170835,,,,,0
10518,,XENIA AV @ STEELE AV,,39.752637,-84.167848,,,,,0
10519,,XENIA AV @ NASSAU ST,,39.752701,-84.165172,,,,,0
10520,,XENIA AV @ ST PAUL AV,,39.752759,-84.16344,,,,,0
10521,,XENIA AV @ PARROT ST,,39.752854,-84.16092,,,,,0
10522,,XENIA AV @ PRITZ AV,,39.752921,-84.157147,,,,,0
10524,,XENIA AV @ BOWEN ST,XENIA AVE & BOWEN ST,39.752934,-84.153943,,,,,0
10525,,XENIA AV @ CARLISLE AV,Xenia Av & Creighton Av,39.753048,-84.151897,,,,,0
10526,,LINDEN AV @ LORAIN AV,,39.752135,-84.150377,,,,,0
10527,,LINDEN AV @ SANTA CRUZ AV,,39.750837,-84.14863,,,,,0
10528,,LINDEN AV @ ALVERNO AV,,39.749559,-84.146313,,,,,0
10529,,LINDEN AV @ JOHN GLENN RD,Linden Av & John Glenn Rd,39.748591,-84.144485,,,,,0
10532,,LINDEN AV @ S SMITHVILLE RD,,39.748074,-84.140439,,,,,0
10533,,LINDEN AV @ EMMONS AV,,39.747884,-84.137306,,,,,0
10534,,LINDEN AV @ MERILINE AV,LINDEN AVE & MERILINE AVE,39.747654,-84.135072,,,,,0
10535,,HEARTHSTONE DR @ WELLINGTON DR,Hearthstone Dr & Wellington Dr,39.747027,-84.13312,,,,,0
10536,,HEARTHSTONE DR @ EASTWEY AV,Hearthstone Dr & Marimont Dr,39.746018,-84.133425,,,,,0
10537,,HEARTHSTONE DR @ MESMER AV,Hearthstone Dr & Mesmer Av,39.743448,-84.133682,,,,,0
10538,,HEARTHSTONE DR @ CORINTH BLVD,Hearthstone Dr & Corinth Blvd,39.741913,-84.133516,,,,,0
10540,,HEARTHSTONE DR @ ARCADIA BLVD,Hearthstone Dr & Leacourt Dr,39.740245,-84.132325,,,,,0
10541,,ARCADIA BLVD @ MERILINE AV,,39.7399,-84.13452,,,,,0
10542,,ARCADIA BLVD @ EMMONS AV,,39.740013,-84.136627,,,,,0
10549,,S SMITHVILLE RD @ MARIMONT DR,,39.744654,-84.139748,,,,,0
10551,,S SMITHVILLE RD @ WELLINGTON DR,,39.747093,-84.13946,,,,,0
10552,,LINDEN AV @ ROSEMONT BLVD,Linden Av & Rosemont Blvd,39.748342,-84.142306,,,,,0
10553,,LINDEN AV @ JOHN GLENN RD,,39.748839,-84.144561,,,,,0
10555,,LINDEN AV @ ALVERNO AV,,39.749688,-84.146225,,,,,0
10557,,LINDEN AV @ SANTA CRUZ AV,Linden Av & Kolping Av,39.750793,-84.148185,,,,,0
10558,,LINDEN AV @ LORAIN AV,Linden Av & Wellmeier Av,39.7518,-84.149729,,,,,0
10560,,XENIA AV @ LINDEN AV,Xenia Av & Creighton Av,39.753209,-84.152027,,,,,0
10561,,XENIA AV @ BOWEN ST,Xenia Av & Bowen St,39.753163,-84.1543,,,,,0
10563,,XENIA AV @ PRITZ AV,,39.753061,-84.156687,,,,,0
10565,,XENIA AV @ PARROT ST,,39.752973,-84.160647,,,,,0
10566,,XENIA AV @ BOLTIN ST,,39.752877,-84.163144,,,,,0
10567,,XENIA AV @ NASSAU ST,,39.752829,-84.164651,,,,,0
10568,,XENIA AV @ STEELE AV,,39.752788,-84.167356,,,,,0
10570,,XENIA AV @ GEORGE ST,,39.752651,-84.171123,,,,,0
10572,,XENIA AV @ KEOWEE ST,,39.752629,-84.175074,,,,,0
10573,,KEOWEE ST @ WAYNE AV,Thurman Ln & Wayne Av,39.751869,-84.176402,,,,,0
10599,,BROWN ST @ SAWMILL RD,,39.735488,-84.180934,,,,,0
10600,,BROWN ST @ SPRINGHOUSE RD,,39.733623,-84.180509,,,,,0
10602,,OAKWOOD AV @ E SCHANTZ AV,,39.731523,-84.179932,,,,,0
10603,,OAKWOOD AV @ RIDGEWOOD AV,Oakwood Av & Ridgewood Av,39.730538,-84.179666,,,,,0
10605,,FAR HILLS AV @ OAKWOOD AV,,39.727505,-84.178215,,,,,0
10606,,FAR HILLS AV @ HARMAN AV,,39.72672,-84.176211,,,,,0
10607,,FAR HILLS AV @ PATTERSON RD,,39.725449,-84.173971,,,,,0
10608,,FAR HILLS AV @ PARK AV,,39.723392,-84.173178,,,,,0
10610,,FAR HILLS AV @ HARMAN AV,,39.721083,-84.172795,,,,,0
10612,,FAR HILLS AV @ GREENMOUNT BLVD,,39.718892,-84.172478,,,,,0
10613,,FAR HILLS AV @ ASHRIDGE RD,,39.7181,-84.172395,,,,,0
10615,,FAR HILLS AV @ PARK RD,,39.716165,-84.172084,,,,,0
10617,,FAR HILLS AV @ WILTSHIRE BLVD,,39.714313,-84.171861,,,,,0
10619,,FAR HILLS AV @ HADLEY RD,,39.712467,-84.171596,,,,,0
10621,,FAR HILLS AV @ PEACH ORCHARD AV,,39.710788,-84.171389,,,,,0
10622,,FAR HILLS AV @ TRIANGLE AV,,39.709881,-84.171199,,,,,0
10624,,FAR HILLS AV @ OAK KNOLL DR,,39.706593,-84.170805,,,,,0
10625,,FAR HILLS AV @ 2800 FAR HILLS AV,,39.705655,-84.170709,,,,,0
10626,,FAR HILLS AV @ W DOROTHY LN,,39.70502,-84.170632,,,,,0
10628,,FAR HILLS AV @ CUSHING AV,,39.702454,-84.170315,,,,,0
10630,,FAR HILLS AV @ WINDING WAY,,39.699032,-84.169813,,,,,0
10631,,FAR HILLS AV @ PELHAM DR N,,39.696814,-84.169402,,,,,0
10632,,FAR HILLS AV @ CROSSRIDGE DR,,39.695104,-84.16908,,,,,0
10633,,FAR HILLS AV @ FOXRIDGE DR,,39.693934,-84.168852,,,,,0
10636,,FAR HILLS & STROOP,Southmoor Cir & Delaine Av,39.689926,-84.167648,,,,,0
10637,,FAR HILLS AV @ SOUTHMOOR CIR NE,,39.69028,-84.168511,,,,,0
10638,,FAR HILLS AV @ EARNSHAW DR,,39.691916,-84.16851,,,,,0
10639,,FAR HILLS AV @ FOXRIDGE,FAR HILLS AVE & FOXRIDGE DR,39.69365,-84.168627,,,,,0
10640,,FAR HILLS AV @ N BROMFIELD RD,,39.695308,-84.168869,,,,,0
10641,,FAR HILLS AV @ PELHAM DR N,,39.697015,-84.169224,,,,,0
10642,,FAR HILLS AV @ WINDING WAY,,39.698832,-84.169525,,,,,0
10643,,FAR HILLS AV @ CUSHING AV,,39.702283,-84.170008,,,,,0
10644,,FAR HILLS AV @ E DOROTHY LN,,39.705014,-84.170294,,,,,0
10645,,FAR HILLS AV @ CLARANNA AV,FAR HILLS AVE & CLARANNA AVE,39.707106,-84.170576,,,,,0
10646,,FAR HILLS AV @ ORCHARD DR,,39.708468,-84.170813,,,,,0
10647,,FAR HILLS AV @ PEACH ORCHARD AV,,39.710852,-84.171056,,,,,0
10649,,FAR HILLS AV @ HADLEY AV,Far Hills Av & E Hadley Av,39.712278,-84.171234,,,,,0
10651,,FAR HILLS AV @ WILTSHIRE BLVD,,39.714163,-84.171604,,,,,0
10653,,FAR HILLS AV @ ABERDEEN AV,,39.715894,-84.171795,,,,,0
10655,,FAR HILLS AV @ LONSDALE AV,,39.717905,-84.172062,,,,,0
10656,,FAR HILLS AV @ GREENMONT BLVD,,39.718773,-84.17221,,,,,0
10658,,FAR HILLS AV @ HARMAN AV,FAR HILLS AVE & HARMAN AVE,39.720928,-84.172526,,,,,0
10660,,FAR HILLS AV @ WISTERIA DR,,39.723243,-84.173025,,,,,0
10661,,FAR HILLS AV @ PATTERSON RD,,39.725286,-84.1737,,,,,0
10662,,FAR HILLS AV @ HARMAN AV,,39.726904,-84.176161,,,,,0
10663,,FAR HILLS @ OAKWOOD AVE,E THRUSTON BLVD,39.727807,-84.17843,,,,,0
10665,,OAKWOOD AV @ RIDGEWOOD AV,,39.73026,-84.179453,,,,,0
10666,,OAKWOOD AV @ SCHANTZ AV,,39.731203,-84.179713,,,,,0
10668,,OAKWOOD AV @ IRVING AV,OAKWOOD AVE & BROWN ST,39.733281,-84.180161,,,,,0
10686,,E 1ST ST @ WEBSTER ST,Hwy 4 & E 1st St,39.763902,-84.182415,,,,,0
10687,,E 1ST ST @ TAYLOR ST,Hwy 4 & Taylor St,39.764387,-84.179448,,,,,0
10688,,E 1ST ST @ MEIGS ST,Hwy 4 & Baltimore And Ohio Railroad,39.764459,-84.178659,,,,,0
10690,,N KEOWEE ST @ OTTAWA ST,,39.766716,-84.17671,,,,,0
10693,,VALLEY ST @ TROY ST,,39.770263,-84.175178,,,,,0
10694,,VALLEY ST @ GRANT ST,,39.772468,-84.172103,,,,,0
10695,,VALLEY ST @ AIR ST,,39.773188,-84.171098,,,,,0
10696,,VALLEY ST @ CHILDRENS PLZ,,39.774295,-84.169564,,,,,0
10698,,VALLEY ST @ RITA ST,,39.77628,-84.167192,,,,,0
10699,,VALLEY ST @ STAPELTON CT,,39.7779,-84.165299,,,,,0
10701,,VALLEY ST @ STANLEY AV,,39.779856,-84.163049,,,,,0
10702,,VALLEY PIKE @ STANVIEW AV,,39.780498,-84.161862,,,,,0
10703,,VALLEY PIKE @ BELLFONTAINE RD,,39.781583,-84.159722,,,,,0
10705,,BICKMORE AV @ PAW PAW ST,,39.782252,-84.159122,,,,,0
10707,,BRANDT & BICKMORE,,39.783208,-84.161491,,,,,0
10708,,BRANDT ST @ BELLFONTAINE RD,,39.78274,-84.162183,,,,,0
10709,,BRANDT ST @ STEGMAN AV,,39.781976,-84.16267,,,,,0
10710,,BRANDT ST @ STANLEY AV,,39.781008,-84.163289,,,,,0
10711,,LEO ST @ STANLEY AV,,39.781745,-84.165081,,,,,0
10713,,LEO ST @ BROXEY,,39.781981,-84.167235,,,,,0
10714,,LEO ST @ BALTIMORE ST,,39.782134,-84.170361,,,,,0
10716,,TROY ST @ LEO ST,,39.781993,-84.173985,,,,,0
10717,,TROY ST @ LEONHARD ST,,39.780166,-84.174159,,,,,0
10718,,TROY ST @ EDMUND ST,,39.778599,-84.174295,,,,,0
10719,,TROY ST @ RAY ST,,39.777298,-84.174481,,,,,0
10721,,TROY ST @ CHAPEL ST,,39.775005,-84.174836,,,,,0
10723,,TROY ST @ DELL ST,,39.772435,-84.17528,,,,,0
10724,,TROY ST @ VALLEY ST,,39.771103,-84.175461,,,,,0
10725,,VALLEY ST @ KEOWEE ST,Hwy 4 & Ohio St,39.769574,-84.176499,,,,,0
10727,,KEOWEE ST @ PITT ST,,39.767121,-84.177615,,,,,0
10728,,E MONUMENT AV @ MEIGS ST,,39.766138,-84.179788,,,,,0
10730,,SHROYER RD @ LEXOW ST,,39.722653,-84.160914,,,,,0
10732,,SHROYER RD @ GAINSBOROUGH RD,,39.720615,-84.161096,,,,,0
10734,,SHROYER RD @ LONSDALE AV,,39.71748,-84.161467,,,,,0
10736,,SHROYER RD @ ABERDEEN AV,,39.715648,-84.161578,,,,,0
10738,,SHROYER RD @ WILTSHIRE BLVD,,39.713834,-84.161714,,,,,0
10740,,SHROYER RD @ E HADLEY AV,,39.711981,-84.161837,,,,,0
10742,,SHROYER RD @ E PEACH ORCHARD AV,,39.710236,-84.161927,,,,,0
10744,,SHROYER RD @ ORCHARD DR,,39.708445,-84.162119,,,,,0
10745,,SHROYER RD @ WONDERLY AV,,39.706987,-84.162217,,,,,0
10748,,SHROYER RD @ CUSHING AV,,39.702022,-84.162578,,,,,0
10750,,SHROYER RD @ 3301 SHROYER RD,,39.699,-84.162783,,,,,0
10793,,SHROYER RD @ ISAAC PRUGH WAY,,39.698951,-84.162652,,,,,0
10794,,SHROYER RD @ CUSHING AV,,39.701124,-84.162482,,,,,0
10795,,SHROYER RD @ LEWISTON RD,,39.702732,-84.162342,,,,,0
10796,,SHROYER RD @ DOROTHY LN,,39.703786,-84.162264,,,,,0
10798,,SHROYER RD @ BROAD BLVD,SHROYER RD & CLARANNA AVE,39.706711,-84.161925,,,,,0
10799,,SHROYER RD @ ORCHARD DR,SHROYER RD & WONDERLY AVE,39.708264,-84.161809,,,,,0
10801,,SHROYER RD @ PEACH ORCHARD DR,SHROYER RD & E PEACH ORCHARD AVE,39.709933,-84.161729,,,,,0
10803,,SHROYER RD @ E HADLEY AV,SHROYER RD & E HADLEY AVE,39.711789,-84.161602,,,,,0
10806,,SHROYER RD @ TELFORD AV,SHROYER RD & TELFORD AVE,39.714502,-84.161394,,,,,0
10807,,SHROYER RD @ ABERDEEN AV,SHROYER RD & ABERDEEN AVE,39.715502,-84.161348,,,,,0
10809,,SHROYER RD @ LONSDALE AV,SHROYER RD & LONSDALE AVE,39.717269,-84.161244,,,,,0
10811,,SHROYER RD @ GAINSBOROUGH RD,,39.720169,-84.160989,,,,,0
10813,,SHROYER RD @ LEXOW AV,,39.722743,-84.160868,,,,,0
10814,,SHROYER RD @ PATTERSON RD,,39.724297,-84.160676,,,,,0
10815,,SHROYER RD @ ROY AV,,39.725836,-84.160565,,,,,0
10816,,SHROYER RD @ KREBS AV,,39.72813,-84.160424,,,,,0
10817,,SHROYER RD @ SHELBY AV,,39.730032,-84.160306,,,,,0
10818,,WINDEN AV @ IRVING AV,,39.732237,-84.160869,,,,,0
10819,,WASHINGTON ST @ S LUDLOW ST,,39.752442,-84.1915,,,,,0
10822,,S EDWIN C MOSES BLVD @ U.S. 35 OVER,Miami Blvd & Us 35,39.749001,-84.198924,,,,,0
10824,,ELIZABETH PLACE,,39.74718,-84.199726,,,,,0
10829,,CAMPBELL ST @ HOMESTEAD AV,,39.743926,-84.206626,,,,,0
10831,,CAMPBELL ST @ STEWART ST,Campbell St & Galloway St,39.74163,-84.206564,,,,,0
10833,,W STEWART ST @ WILDWOOD AV,W Stewart St & Wildwood Av,39.741921,-84.209897,,,,,0
10835,,W STEWART ST @ WISCONSIN BLVD,,39.741877,-84.212237,,,,,0
10837,,W STEWART ST @ S BROADWAY ST,W Stewart St & S Broadway St,39.741896,-84.215984,,,,,0
10839,,W STEWART ST @ EUCLID AV,W Stewart St & S Summit St,39.741882,-84.219846,,,,,0
10841,,DANNER AV @ TAMPA AV,Danner Av & Tampa Av,39.740184,-84.222304,,,,,0
10844,,MIAMI CHAPEL RD @ EUCLID AV,,39.737815,-84.21961,,,,,0
10845,,MIAMI CHAPEL RD @ 1366 MIAMI CHA,,39.737818,-84.217557,,,,,0
10846,,MIAMI CHAPEL RD @ S BROADWAY ST,,39.737843,-84.215833,,,,,0
10847,,MIAMI CHAPEL RD @ ALWILDY AV,,39.737853,-84.213339,,,,,0
10849,,MIAMI CHAPEL RD @ SPECIALTY,Miami Chapel Rd & Campbell St,39.738121,-84.2087,,,,,0
10852,,CINCINNATI ST @ BOLANDER AV,Cincinnati St & Decatur Av,39.741983,-84.20235,,,,,0
10854,,CINCINNATI ST @ STEWART ST,Cincinnati St & W Stewart St,39.74017,-84.203559,,,,,0
10856,,MIAMI CHAPEL RD @ CAMPBELL ST,,39.738073,-84.206548,,,,,0
10860,,CAMPBELL ST @ 120 CAMPBELL ST,,39.744357,-84.206567,,,,,0
10862,,ALBANY ST @ CINCINNATI ST,,39.746001,-84.201296,,,,,0
10867,,WASHINGTON ST @ LONGWORTH ST,,39.751269,-84.195976,,,,,0
10869,,WASHINGTON ST @ LUDLOW ST,,39.752213,-84.191905,,,,,0
10871,,CINCINNATI ST @ BOLANDER AV,CINCINNATI ST & BOLANDER AVE,39.741674,-84.202122,,,,,0
10875,,RIVERVIEW AV @ SALEM AV,,39.761856,-84.205716,,,,,0
10876,,RIVERVIEW AV @ RIVERVIEW TER,,39.76087,-84.20738,,,,,0
10877,,RIVERVIEW AV @ MIDDLE ST,W Riverview Av & Riverview Terr,39.760769,-84.209534,,,,,0
10879,,RIVERVIEW AV @ MEREDITH ST,,39.761157,-84.212369,,,,,0
10880,,RIVERVIEW AV @ BROADWAY,W Riverview Av & N Broadway St,39.761735,-84.214801,,,,,0
10881,,RIVERVIEW AV @ FERGUSON AV,W Riverview Av & N Broadway St,39.762251,-84.216721,,,,,0
10882,,RIVERVIEW AV @ N PAUL L. DUNBAR,W Riverview Av & N Summit St,39.762721,-84.219113,,,,,0
10883,,RIVERVIEW AV @ N EUCLID AV,W Riverview Av & Saint Agnes Av,39.763039,-84.221611,,,,,0
10884,,RIVERVIEW AV @ CATALPA DR,,39.763234,-84.224186,,,,,0
10885,,RIVERVIEW AV @ ROSEDALE DR,,39.763343,-84.226373,,,,,0
10887,,RIVERVIEW AV @ EVERETT DR,W Riverview Av & Vernon Dr,39.765339,-84.230615,,,,,0
10888,,RIVERVIEW AV @ WAWONA RD,W Riverview Av & Wawona Rd,39.765944,-84.232182,,,,,0
10889,,RIVERVIEW AV @ PHILADELPHIA DR,,39.766822,-84.234119,,,,,0
10890,,PHILADELPHIA DR @ WAWONA RD,,39.768029,-84.234232,,,,,0
10891,,OXFORD AV @ PHILADELPHIA DR,,39.769186,-84.234686,,,,,0
10892,,OXFORD AV @ BRIDGE ST,,39.769304,-84.236504,,,,,0
10893,,OXFORD AV @ TENNYSON AV,,39.770073,-84.238004,,,,,0
10894,,TENNYSON AV @ PRINCETON DR,Tennyson Av & Princeton Dr,39.772361,-84.237898,,,,,0
10896,,KIPLING DR @ PRINCETON DR,,39.772905,-84.240701,,,,,0
10898,,KIPLING DR @ EARLHAM DR,Kipling Dr & Earlham Dr,39.774515,-84.242333,,,,,0
10899,,KIPLING DR @ CORNELL DR,,39.7762,-84.242639,,,,,0
10900,,KIPLING DR @ STANFORD PL,Kipling Dr & Harvard Blvd,39.777969,-84.242353,,,,,0
10901,,KIPLING DR @ HARVARD BLVD,Kipling Dr & Stanford Pl,39.779271,-84.242556,,,,,0
10902,,KIPLING DR @ OTTERBEIN AV,Kipling Dr & Otterbein Av,39.78094,-84.242372,,,,,0
10911,,N GETTYSBURG AV @ GENESEE AV,N Gettysburg Av & Genesee Av,39.784922,-84.253586,,,,,0
10912,,N GETTYSBURG AV @ PRESCOTT AV,,39.786713,-84.253692,,,,,0
10924,,ARLENE AV @ COPELAND AV,,39.794503,-84.262468,,,,,0
10925,,ARLENE AV @ CHRISTOPHER AV,,39.79314,-84.262433,,,,,0
10927,,ARLENE AV @ HILLCREST AV,,39.790666,-84.262426,,,,,0
10928,,ARLENE AV @ ST JAMES AV,,39.78902,-84.262364,,,,,0
10929,,ARLENE AV @ PRESCOTT AV,,39.78658,-84.26234,,,,,0
10930,,ARLENE AV @ GENESEE AV,,39.785014,-84.262252,,,,,0
10931,,ARLENE AV @ KINGS HWY,Arlene Av & Forsythe Av,39.782669,-84.262216,,,,,0
10933,,BLUEBERRY AV @ PEACH TREE AV,Blueberry Av & Arlene Av,39.781395,-84.261187,,,,,0
10934,,BLUEBERRY AV @ ENGLAND AV,Blueberry Av & England Av,39.781416,-84.259161,,,,,0
10935,,ENGLAND AV @ FORSYTHE AV,England Av & Kings Hwy,39.78321,-84.258954,,,,,0
10936,,ENGLAND AV @ GENESEE AV,England Av & Queens Av,39.784539,-84.258934,,,,,0
10937,,GENESEE AV @ 4450 GENESEE AV,Genesee Av & N Gettysburg Av,39.784819,-84.257226,,,,,0
10938,,GENESEE AV @ N GETTYSBURG AV,Genesee Av & England Av,39.784832,-84.253904,,,,,0
10939,,KINGS HWY @ GETTYSBURG,Kings Hwy & Roland Cir,39.783237,-84.252651,,,,,0
10942,,KINGS HWY @ ROLAND CIR,Kings Hwy & Fairport Av,39.783281,-84.246902,,,,,0
10944,,KINGS HWY @ KIPLING DR,Kings Hwy & Kipling Dr,39.78334,-84.242908,,,,,0
10948,,KIPLING DR @ HARVARD BLVD,,39.779527,-84.242761,,,,,0
10949,,KIPLING DR @ STANFORD PL,,39.778126,-84.242636,,,,,0
10950,,KIPLING @ CORNELL (NEARSIDE),,39.776384,-84.242723,,,,,0
10951,,KIPLING DR @ EARLHAM DR,,39.774711,-84.242574,,,,,0
10953,,KIPLING DR @ PRINCETON DR,Kipling Dr & Unnamed,39.772821,-84.240856,,,,,0
10955,,PRINCETON DR @ TENNYSON AV,Princeton Dr & Tennyson Av,39.77237,-84.238181,,,,,0
10956,,OXFORD AV @ TENNYSON AV,,39.769722,-84.237885,,,,,0
10957,,OXFORD AV @ BRIDGE ST,Oxford Av & Bridge St,39.769133,-84.23656,,,,,0
10958,,PHILADELPHIA DR @ LEXINGTON AV,,39.768522,-84.234393,,,,,0
10959,,PHILADELPHIA DR @ RIVERVIEW AV,,39.767264,-84.234357,,,,,0
10960,,RIVERVIEW AV @ WAWONA RD,,39.765897,-84.232392,,,,,0
10961,,RIVERVIEW AV @ EVERETT DR,,39.765229,-84.230715,,,,,0
10962,,RIVERVIEW AV @ VERNON DR,,39.764489,-84.229303,,,,,0
10963,,RIVERVIEW AV @ ROSEDALE DR,,39.763338,-84.226628,,,,,0
10964,,RIVERVIEW AV @ CATALPA DR,W Riverview Av & Catalpa Dr,39.76308,-84.224391,,,,,0
10965,,RIVERVIEW AV @ EUCLID AV,,39.762986,-84.221994,,,,,0
10966,,RIVERVIEW AV @ N PAUL LAWRENCE D,,39.762487,-84.218887,,,,,0
10967,,RIVERVIEW AV @ FERGUSON AV,,39.762205,-84.217029,,,,,0
10969,,RIVERVIEW AV @ MEREDITH ST,,39.761133,-84.212741,,,,,0
10972,,RIVERVIEW AV @ EDWIN C MOSES BLV,,39.761004,-84.206828,,,,,0
10974,,W 3RD ST @ LAWNCREST AV,,39.74646,-84.298751,,,,,0
10975,,W 3RD ST @ HOLLER RD,,39.746458,-84.300807,,,,,0
10976,,W 3RD ST @ PAIGE AV,,39.746407,-84.306198,,,,,0
10977,,W 3RD ST @ 7465 W 3RD ST,Us 35 & Unnamed,39.746247,-84.318615,,,,,0
10978,,W 3RD ST @ SNYDER RD,,39.746163,-84.330412,,,,,0
10979,,W 3RD ST @ LUTHERAN CHURCH RD,,39.746014,-84.348086,,,,,0
10980,,W 3RD ST @ VOYAGER VILLAGE,,39.745973,-84.354554,,,,,0
10981,,W 3RD ST @ DIAMOND MILL RD,,39.745875,-84.366221,,,,,0
10982,,W 3RD ST @ 10241 W 3RD ST,,39.745878,-84.370897,,,,,0
10983,,E MAIN ST @ HEPNER AV,,39.745768,-84.38014,,,,,0
10984,,E MAIN ST @ BRUMBAUGH AV,,39.745738,-84.383022,,,,,0
10985,,E MAIN ST @ N CHURCH ST,,39.745714,-84.385075,,,,,0
10986,,W MAIN ST @ GLORIA AV,,39.745709,-84.38866,,,,,0
10987,,W MAIN ST @ MARILYN AV,,39.745673,-84.391874,,,,,0
10989,,W MAIN ST @ MILESTONE PK,,39.745524,-84.403275,,,,,0
10990,,W MAIN ST @ FULS RD,,39.745541,-84.404682,,,,,0
10991,,W MAIN ST @ 1135 W MAIN ST,,39.745528,-84.407519,,,,,0
10992,,W MAIN ST @ 1563 W MAIN ST,,39.745397,-84.414649,,,,,0
10993,,W MAIN ST @ 1789 W MAIN ST,,39.745394,-84.418655,,,,,0
10994,,W MAIN ST @ SWANSON ST,,39.745372,-84.420784,,,,,0
10995,,W MAIN ST @ N JOHNSVILLE BROOKVL,,39.745353,-84.423202,,,,,0
10996,,W MAIN ST @ 1886 SWANSON ST,W Main St & Swanson Dr,39.745197,-84.421055,,,,,0
10997,,W MAIN ST @ BECHER ST,Us 35 & Becher St,39.74523,-84.418747,,,,,0
10998,,W MAIN ST @ ASSEMBLY OF GOD CHUR,W Main St & Unnamed,39.745277,-84.414897,,,,,0
11000,,W MAIN ST @ FULS RD,Us 35 & N Fuls Rd,39.74533,-84.405171,,,,,0
11001,,W MAIN ST @ 900 W MAIN ST,,39.745418,-84.402392,,,,,0
11002,,W MAIN ST @ 450 W MAIN ST,,39.745478,-84.394045,,,,,0
11004,,W MAIN ST @ GLENADA CT,,39.745582,-84.388701,,,,,0
11005,,E MAIN ST @ CHURCH ST,,39.745594,-84.385383,,,,,0
11006,,E MAIN ST @ BRUMBAUGH LN,,39.74562,-84.382648,,,,,0
11007,,E MAIN ST @ BRONWOOD ST,,39.745634,-84.379707,,,,,0
11008,,STATE RT 35 @ 10240 US 35,,39.745719,-84.371024,,,,,0
11009,,STATE RT 35 @ DIAMOND MILL RD,,39.745716,-84.366756,,,,,0
11010,,W 3RD ST @ VOYAGER BLVD,,39.745804,-84.354092,,,,,0
11011,,W 3RD ST @ LUTHERN CHURCH RD,,39.745884,-84.347729,,,,,0
11012,,W 3RD ST @ SNYDER RD,,39.746061,-84.330035,,,,,0
11013,,W 3RD ST @ 7500 W 3RD ST,Us 35 & W 3rd St,39.746094,-84.319615,,,,,0
11014,,W 3RD ST @ S UNION RD,,39.746266,-84.308488,,,,,0
11015,,W 3RD ST @ PAIGE AV,,39.746237,-84.305851,,,,,0
11016,,W 3RD ST @ BRICKER AV,Us 35 & Bricker Av,39.746246,-84.300834,,,,,0
11018,,S MAIN ST @ RIVER PK DR,,39.738675,-84.186208,,,,,0
11019,,S MAIN ST @ CALDWELL ST,,39.73715,-84.185823,,,,,0
11020,,S MAIN ST @ STONEMILL RD,,39.735528,-84.185345,,,,,0
11022,,FAR HILLS AV @ W SCHANTZ AV,FAR HILLS AVE & E SCHANTZ AVE,39.73094,-84.18243,,,,,0
11024,,W SCHANTZ AV @ WAVING WILLOW DR,,39.727873,-84.191595,,,,,0
11025,,W SCHANTZ AV @ WILLOWGROVE AV,W Schantz Av & Maysfield Rd,39.725196,-84.194184,,,,,0
11044,,W DOROTHY LN @ FAIRWAY DR,,39.706874,-84.191175,,,,,0
11045,,SOUTHERN BLVD @ BELVOIR AV,,39.705284,-84.188006,,,,,0
11046,,SOUTHERN BLVD @ COTTONWOOD RD,,39.703562,-84.188758,,,,,0
11047,,SOUTHERN BLVD @ LAURELWOOD RD,,39.701171,-84.189696,,,,,0
11048,,SOUTHERN BLVD @ 3535 SOUTHERN BL,,39.696566,-84.191588,,,,,0
11050,,SOUTHERN BLVD @ LAURELWOOD RD,,39.700842,-84.18973,,,,,0
11051,,SOUTHERN BLVD @ COTTONWOOD RD,,39.703122,-84.188891,,,,,0
11052,,SOUTHERN BLVD @ BELVOIR AV,,39.704777,-84.188111,,,,,0
11053,,W DOROTHY LN @ BERKLEY ST,,39.706971,-84.190704,,,,,0
11055,,W DOROTHY LN @ HILTON DR,,39.707711,-84.194522,,,,,0
11072,,PATTERSON & SCHANTZ,S PATTERSON BLVD & HERITAGE POINT DR,39.72435,-84.196369,,,,,0
11073,,W SCHANTZ AV @ WILLOWGROVE AV,,39.724745,-84.19478,,,,,0
11074,,W SCHANTZ AV @ WAVING WILLOW DR,,39.727378,-84.19178,,,,,0
11076,,FAR HILLS AV @ W SCHANTZ AV,,39.731047,-84.182313,,,,,0
11078,,S MAIN ST @ STONEMILL RD,,39.735335,-84.185103,,,,,0
11079,,S MAIN ST @ CALDWELL ST,,39.737105,-84.185556,,,,,0
11080,,S MAIN ST @ RIVER PK DR,,39.739003,-84.186045,,,,,0
11081,,S MAIN ST @ STEWART ST,,39.740186,-84.186339,,,,,0
11084,,FAR HILLS AV @ SHROYER RD,Hwy 48 & Shroyer Rd,39.683127,-84.167344,,,,,0
11085,,FAR HILLS AV @ W DAVID RD,,39.681131,-84.1668,,,,,0
11086,,FAR HILLS AV @ WESTGATE DR,,39.679007,-84.166232,,,,,0
11087,,FAR HILLS AV @ LAURELANN DR,,39.677207,-84.165724,,,,,0
11088,,FAR HILLS AV @ TALAWANDA TRL,,39.674532,-84.164953,,,,,0
11089,,FAR HILLS AV @ 5185 FAR HILLS AV,,39.671986,-84.164095,,,,,0
11090,,FAR HILLS @ RAHN,,39.66908,-84.162917,,,,,0
11091,,FAR HILLS AV @ LAMP LIGHTER TRL,,39.666735,-84.162,,,,,0
11092,,FAR HILLS AV @ 5701 FAR HILLS AV,,39.663564,-84.16006,,,,,0
11094,,FAR HILLS AV @ W WHIPP RD,FAR HILLS AVE & RAMP,39.658303,-84.157698,,,,,0
11095,,FAR HILLS AV @ BOUNDBROOK DR,FAR HILLS AVE & BOUNDBROOK DR,39.655903,-84.157342,,,,,0
11096,,FAR HILLS AV @ BETHANY LUTHERN D,,39.652703,-84.157174,,,,,0
11097,,FAR HILLS AV @ COMPASSION,,39.651249,-84.157181,,,,,0
11098,,FAR HILLS AV @ LOOP,COVERTSIDE DR & COVERTSIDE DR,39.649031,-84.157322,,,,,0
11099,,STATE HWY 48 @ W ALEX BELL RD,,39.643363,-84.157767,,,,,0
11100,,STATE HWY 48 @ W ELMWOOD DR,,39.640924,-84.157915,,,,,0
11101,,STATE HWY 48 @ WILLIAMSBURG LN,,39.63753,-84.158202,,,,,0
11102,,STATE HWY 48 @ BRADSTREET RD,,39.635119,-84.158478,,,,,0
11103,,STATE HWY 48 @ 199 STATE HWY 48,,39.633121,-84.158604,,,,,0
11104,,STATE HWY 48 @ 133 STATE HWY 48,,39.631694,-84.158776,,,,,0
11106,,RT. 48 @ FRANKLIN ST,,39.629042,-84.158955,,,,,0
11107,,STATE HWY 48 @ CRANSTON CT,Hwy 48 & Cranston Ct,39.626084,-84.159201,,,,,0
11108,,STATE HWY 48 @ PEACH GROVE AV,Hwy 48 & Peach Grove Av,39.623906,-84.159386,,,,,0
11110,,STATE HWY 48 @ BRISTOL DR,S MAIN ST & DALE RIDGE DR,39.61976,-84.159883,,,,,0
11111,,STATE HWY 48 @ REVERE VILLAGE CT,Hwy 48 & Revere Village Ct,39.616276,-84.160105,,,,,0
11112,,STATE HWY 48 @ W SPRING VALLEY P,Dayton Lebanon Pike & W Spring Valley Pike,39.613822,-84.160278,,,,,0
11113,,STATE HWY 48 @ 899 STATE HWY 48,Hwy 48 & Unnamed,39.609369,-84.160684,,,,,0
11114,,STATE HWY 48 @ SHEEHAN RD,Hwy 48 & Dayton Lebanon Pike,39.606986,-84.160845,,,,,0
11115,,E 1ST ST @  KEOWEE ST,E 1st St & N Keowee St,39.764782,-84.176999,,,,,0
11116,,E 1ST ST @ N TERRY ST,E 1st St & Harshman St,39.765535,-84.172241,,,,,0
11117,,E 1ST ST @ STAINTON AV,,39.766461,-84.16625,,,,,0
11118,,E 1ST ST @ BRENNER AV,,39.76671,-84.164528,,,,,0
11119,,E 1ST ST @ BURLINGTON AV,,39.766975,-84.162896,,,,,0
11120,,E 1ST ST @ N TORRENCE ST,,39.7673,-84.160955,,,,,0
11121,,E 1ST ST @ N FINDLAY ST,,39.767811,-84.158105,,,,,0
11122,,SPRINGFIELD ST @ E 1ST ST,,39.768473,-84.155608,,,,,0
11123,,SPRINGFIELD ST @ N JERSEY ST,,39.76975,-84.153398,,,,,0
11124,,SPRINGFIELD ST @ N MCGEE ST,,39.769993,-84.153,,,,,0
11125,,SPRINGFIELD ST @ N IRWIN ST,,39.770353,-84.152368,,,,,0
11126,,SPRINGFIELD ST @ TOWN ST,,39.771233,-84.150836,,,,,0
11127,,SPRINGFIELD ST @ WOODLEY RD,,39.772285,-84.149301,,,,,0
11128,,SPRINGFIELD ST @ WESLEY ST,,39.77327,-84.147486,,,,,0
11129,,SPRINGFIELD ST @ WINSTON AV,Springfield St & Winston Av,39.774577,-84.14522,,,,,0
11130,,SPRINGFIELD ST @ MCFADDEN AV,Springfield St & San Jose Av,39.776051,-84.1427,,,,,0
11131,,SPRINGFIELD ST @ SMITHVILLE RD,Springfield St & Baltimore And Ohio Railroad,39.778178,-84.13865,,,,,0
11132,,SPRINGFIELD ST @ KIMBOLTON AV,Springfield St & Kimbolton St,39.779162,-84.134716,,,,,0
11133,,SPRINGFIELD ST @ SOMERSET AV,Springfield St & Somerset Av,39.77977,-84.132467,,,,,0
11134,,NORTHCLIFF DR @ SPRINGFIELD ST,Northcliff Rd & Garden St,39.780244,-84.129569,,,,,0
11135,,NORTHCLIFF DR @ GLENDEAN AV,Northcliff Rd & Glendean Rd,39.779844,-84.127177,,,,,0
11136,,NORTHCLIFF DR @ DARBY RD,Northcliff Rd & Courtney Dr,39.779363,-84.12455,,,,,0
11137,,NORTHCLIFF DR @ OLD HARSHMAN ST,,39.779098,-84.122354,,,,,0
11138,,OLD HARSHMAN ST @ SPRINGFIELD PIKE,Old Harshman Rd & Unnamed,39.781123,-84.120911,,,,,0
11139,,SPRINGFIELD PIKE @ 5551 SPRINGFIELD,SPRINGFIELD ST & HERITAGE POINT DR,39.785368,-84.113924,,,,,0
11140,,SPRINGFIELD PIKE @ PHYLLIS AV,,39.786947,-84.111299,,,,,0
11143,,SPRINGFIELD PIKE @ 5617 SPRINGFIELD,Springfield Pike & Huberville Av,39.787374,-84.110642,,,,,0
11144,,SPRINGFIELD PIKE @ 5551 SPRINGFIELD,SPRINGFIELD ST & HERITAGE POINT DR,39.785565,-84.113807,,,,,0
11145,,HARSHMAN ST @ SPRINGFIELD PIKE,,39.781165,-84.121072,,,,,0
11146,,HARSHMAN ST @ NORTHCLIFF DR,,39.7793,-84.122097,,,,,0
11147,,NORTHCLIFF DR @ COURTNEY DR,,39.779566,-84.124424,,,,,0
11148,,NORTHCLIFF DR @ GLENDEAN AV,,39.779925,-84.126615,,,,,0
11149,,NORTHCLIFF DR @ SPRINGFIELD PIKE,,39.780463,-84.129653,,,,,0
11150,,SPRINGFIELD PIKE @ SOMERSET AV,,39.77996,-84.132647,,,,,0
11151,,SPRINGFIELD PIKE @ KIMBOLTON AV,,39.779414,-84.13479,,,,,0
11152,,SPRINGFIELD PIKE @ SMITHVILLE RD,,39.77857,-84.137978,,,,,0
11153,,SPRINGFIELD PIKE @ MCFADDEN AV,,39.776257,-84.142681,,,,,0
11154,,SPRINGFIELD PIKE @ SAN JOSE AVE,,39.775621,-84.143781,,,,,0
11155,,SPRINGFIELD PIKE @ WESLEY ST,,39.773616,-84.147226,,,,,0
11156,,SPRINGFIELD PIKE @ WOODLEY RD,,39.772587,-84.149014,,,,,0
11157,,SPRINGFIELD PIKE @ TOWN ST,,39.771559,-84.150786,,,,,0
11158,,SPRINGFIELD PIKE @ N IRWIN ST,,39.770911,-84.151894,,,,,0
11159,,SPRINGFIELD PIKE @ N JERSEY ST,,39.769611,-84.154078,,,,,0
11160,,SPRINGFIELD PIKE @ E 1ST ST,,39.768339,-84.156311,,,,,0
11161,,E 1ST ST @ N FINDLAY ST,,39.768077,-84.15786,,,,,0
11162,,E 1ST ST @ N TORRENCE ST,,39.7676,-84.160633,,,,,0
11163,,E 1ST ST @ BURLINGTON AV,,39.767279,-84.162658,,,,,0
11164,,E 1ST ST @ BRENNER AV,,39.767003,-84.164355,,,,,0
11165,,E 1ST ST @ STAINTON AV,,39.766707,-84.166254,,,,,0
11166,,E 1ST ST @ N TERRY ST,,39.765797,-84.172032,,,,,0
11167,,E 1ST ST @ KEOWEE ST,,39.765111,-84.176165,,,,,0
11168,,E MONUMENT AV @ RIVER CORRIDOR,Hwy 4 & E Monument Av,39.764952,-84.186068,,,,,0
11169,,E MONUMENT AV @ N ST CLAIR ST,E Monument Av & Hwy 4,39.764458,-84.189071,,,,,0
11178,,N GETTYSBURG AV @ CORNELL DR,,39.778172,-84.253639,,,,,0
11179,,N GETTYSBURG AV @ LORI SUE AV,N Gettysburg Av & Necco Av,39.780139,-84.253562,,,,,0
11180,,N GETTYSBURG AV @ BLUEBERRY AV,N Gettysburg Av & Blueberry Av,39.781469,-84.253577,,,,,0
11182,,N GETTYSBURG AV @ KINGS HWY,,39.78355,-84.253843,,,,,0
11183,,N GETTYSBURG AV @ BLUEBERRY AV,,39.781608,-84.253822,,,,,0
11205,,STATE HWY 48 @ SPRING VALLEY PIK,,39.61338,-84.160106,,,,,0
11206,,STATE HWY 48 @ 848 STATE HWY 48,,39.615544,-84.159958,,,,,0
11207,,STATE HWY 48 @ LOGANWOOD DR,,39.619916,-84.159542,,,,,0
11211,,STATE HWY 48 @ 138 STATE HWY 48,,39.624623,-84.159195,,,,,0
11212,,STATE HWY 48 @ MARTHA AV,,39.62583,-84.159086,,,,,0
11213,,STATE HWY 48 @ FRANKLIN ST,,39.628913,-84.158807,,,,,0
11215,,STATE HWY 48 @ IRON GATE PARK DR,,39.631665,-84.158571,,,,,0
11216,,STATE HWY 48 @ 166 STATE HWY 48,,39.632964,-84.158462,,,,,0
11217,,STATE HWY 48 @ BRADSTREET RD,,39.635148,-84.158278,,,,,0
11218,,STATE HWY 48 @ ZENGEL DR,,39.637981,-84.157969,,,,,0
11219,,STATE HWY 48 @ ELMWOOD DR,,39.641331,-84.157655,,,,,0
11221,,STATE HWY 48 @ FIRESIDE DR,,39.652838,-84.156923,,,,,0
11222,,STATE HWY 48 @ N VILLAGE DR,,39.655512,-84.157088,,,,,0
11223,,FAR HILLS AV @ WHIPP RD,,39.65961,-84.157712,,,,,0
11224,,FAR HILLS AV @ BROOKMONT RD,,39.66157,-84.158682,,,,,0
11225,,FAR HILLS AV @ 5692 FAR HILLS AV,,39.663887,-84.159998,,,,,0
11226,,FAR HILLS AV @ SUNNYRIDGE LN,,39.666027,-84.161331,,,,,0
11227,,FAR HILLS @ RAHN,,39.669245,-84.16281,,,,,0
11228,,MONUMENT AV @ MAIN ST,,39.7637,-84.1939,,,,,0
11229,,MONUMENT AV @ N WILKINSON ST,Hwy 4 & W Monument Av,39.763309,-84.19623,,,,,0
11231,,RIVERVIEW AV @ CENTRAL AV,,39.763435,-84.203794,,,,,0
11233,,SALEM AV @ PLYMOUTH AV,,39.764218,-84.206748,,,,,0
11234,,SALEM AV @ SUPERIOR AV,,39.76546,-84.207866,,,,,0
11236,,SALEM AV @ GRAND AV,,39.7676,-84.2098,,,,,0
11237,,SALEM AV @ NORTH AV,,39.76882,-84.21099,,,,,0
11238,,SALEM AV @ NEAL AV,,39.7703,-84.2124,,,,,0
11240,,SALEM AV @ HARVARD BLVD,,39.7721,-84.214,,,,,0
11241,,SALEM AV @ MANHATTAN AV,,39.773111,-84.214993,,,,,0
11243,,SALEM AV @ DELAWARE AV,Hwy 49 & Delaware Av,39.776394,-84.217858,,,,,0
11244,,SALEM AV @ WABASH AV,Hwy 49 & Wabash Av,39.778034,-84.219381,,,,,0
11247,,SALEM AV @ EMERSON AV,,39.7807,-84.2228,,,,,0
11248,,SALEM AV @ RUGBY RD,,39.7819,-84.2246,,,,,0
11249,,SALEM AV @ CATALPA DR,,39.782829,-84.226131,,,,,0
11250,,SALEM AV @ RAVENWOOD AV,Hwy 49 & Auburn Av,39.783442,-84.22698,,,,,0
11252,,SALEM AV @ ELSMERE AV,,39.785257,-84.230197,,,,,0
11253,,SALEM AV @ BENSON DR,,39.786361,-84.232451,,,,,0
11254,,SALEM AV @ PHILADELPHIA DR,,39.787251,-84.234304,,,,,0
11255,,SALEM AV @ BENTON AV,,39.7887,-84.2375,,,,,0
11256,,SALEM AV @ STANHOPE AV,,39.7893,-84.2388,,,,,0
11259,,SALEM AV @ HILLCREST AV,Salem Av & W Hillcrest Av,39.790572,-84.240911,,,,,0
11260,,SALEM AV @ 3470 SALEM AV,Salem Av & Hwy 49,39.792201,-84.243483,,,,,0
11261,,SALEM AV @ KLEPINGER RD,Salem Av & Fairport Av,39.793252,-84.245053,,,,,0
11262,,SALEM AV @ FAIRPORT AV,,39.7943,-84.2466,,,,,0
11264,,SALEM AV @ FALMOUTH AV,,39.7963,-84.2496,,,,,0
11265,,SALEM AV @ SIEBENTHALER AV,Hwy 49 & Salem Av,39.797767,-84.251769,,,,,0
11266,,SALEM AV @ EVANSVILLE AV,,39.7998,-84.253,,,,,0
11267,,SALEM AV @ DETROIT AV,Salem Pike & Detroit Av,39.801601,-84.253747,,,,,0
11268,,SALEM AV @ ANNAPOLIS AV,,39.8035,-84.2548,,,,,0
11269,,SALEM AV @ WOLF RD,Hwy 49 & Salem Pike,39.805274,-84.25642,,,,,0
11271,,SALEM AV @ MEADOW DR,,39.807,-84.2592,,,,,0
11273,,SALEM @ FAIRGREEN,Hwy 49 & Fairgreen Av,39.80871,-84.261921,,,,,0
11276,,SALEM AV @ MEADOW DR,SALEM AVE & MEADOW DR,39.807209,-84.259934,,,,,0
11278,,SALEM AV @ ANNAPOLIS AV,,39.8037,-84.255177,,,,,0
11279,,SALEM AV @ CURUNDU AV,,39.802265,-84.254304,,,,,0
11280,,SALEM AV @ N GETTYSBURG AV,,39.800063,-84.253355,,,,,0
11281,,SALEM AV @ FREE PIKE,,39.798326,-84.252538,,,,,0
11282,,SALEM AV @ WENTWORTH AV,,39.797384,-84.251594,,,,,0
11283,,SALEM AV @ FALMOUTH AV,,39.79637,-84.249966,,,,,0
11285,,SALEM AV @ FAIRPORT AV,,39.794175,-84.24675,,,,,0
11286,,SALEM AV @ KLEPINGER RD,SALEM AVE & KLEPINGER RD,39.792721,-84.24473,,,,,0
11287,,SALEM AV @ 3470 SALEM AV,,39.79185,-84.243411,,,,,0
11288,,SALEM AV @ HILLCREST AV,,39.790977,-84.241969,,,,,0
11289,,SALEM AV @ 3032 SALEM AV,,39.789967,-84.240342,,,,,0
11291,,SALEM AV @ PARKHILL DR,,39.78894,-84.238245,,,,,0
11292,,SALEM AV @ TENNYSON AV,,39.788121,-84.236405,,,,,0
11293,,SALEM AV @ PHILADELPHIA DR,,39.787076,-84.234507,,,,,0
11294,,SALEM AV @ BENSON DR,,39.786083,-84.232291,,,,,0
11295,,SALEM AV @ ELSMERE AV,,39.785308,-84.230577,,,,,0
11296,,SALEM AV @ MALVERN AV,,39.784388,-84.22881,,,,,0
11297,,SALEM AV @ RAVENWOOD AV,,39.783252,-84.227037,,,,,0
11298,,SALEM AV @ CATALPA DR,Hwy 49 & Catalpa Dr,39.78248,-84.225788,,,,,0
11299,,SALEM AV @ EMERSON AV,,39.780841,-84.22331,,,,,0
11300,,SALEM AV @ VASSAR DR,,39.779655,-84.221448,,,,,0
11302,,SALEM AV @ WABASH AV,,39.777746,-84.219506,,,,,0
11303,,SALEM AV @ CORNELL DR,,39.776765,-84.218591,,,,,0
11304,,SALEM AV @ PRINCETON DR,,39.775422,-84.217268,,,,,0
11305,,SALEM AV @ DARTMOUTH DR,,39.773851,-84.215857,,,,,0
11306,,SALEM AV @ HARVARD BLVD,,39.772409,-84.214572,,,,,0
11307,,SALEM AV @ YALE AV,,39.771184,-84.21345,,,,,0
11308,,SALEM AV @ CAMBRIDGE AV,,39.770214,-84.212507,,,,,0
11309,,SALEM AV @ OXFORD AV,,39.769268,-84.211672,,,,,0
11310,,SALEM AV @ GRAND AV,,39.767801,-84.210331,,,,,0
11312,,SALEM AV @ BERM ST,,39.765174,-84.207909,,,,,0
11313,,SALEM AV @ EDGEWOOD AV,SALEM AVE & EDGEWOOD AVE,39.764068,-84.206946,,,,,0
11314,,SALEM AV @ RIVERVIEW AV,,39.762439,-84.205337,,,,,0
11319,,W 4TH ST @ WILKINSON ST,W 4TH ST & S WILKINSON ST,39.757567,-84.194944,,,,,0
11320,,W 4TH ST @ PERRY ST,,39.757282,-84.197041,,,,,0
11321,,W 4TH ST @ ST MARYS ST,,39.756908,-84.198847,,,,,0
11322,,W 4TH ST @ 340 W 4TH ST,,39.755975,-84.200127,,,,,0
11323,,GERMANTOWN ST @ GERMANTOWN ST,Hwy 4 & Norwood Av,39.753734,-84.203491,,,,,0
11324,,GERMANTOWN ST @ EDWIN C MOSES BLVD,W FIFTH ST & GERMANTOWN ST,39.753085,-84.205123,,,,,0
11325,,NORWOOD AV @ HORACE ST,,39.752707,-84.207041,,,,,0
11326,,NORWOOD AV @ MOUND ST,,39.752508,-84.208908,,,,,0
11327,,MOUND ST @ GERMANTOWN ST,,39.750444,-84.208986,,,,,0
11332,,GERMANTOWN ST @ S PAUL LAWRENCE,,39.74712,-84.217586,,,,,0
11333,,GERMANTOWN @ EUCLID,Germantown St & S Euclid Av,39.746121,-84.220385,,,,,0
11334,,GERMANTOWN ST @ DANNER AV,Hwy 4 & Danner Av,39.745628,-84.221715,,,,,0
11336,,LAKEVIEW AV @ CLEMENT AV,,39.74457,-84.22738,,,,,0
11337,,LAKEVIEW AV @ RANDOLPH ST,,39.743991,-84.229001,,,,,0
11338,,LAKEVIEW AV @ DENNISON AV,,39.743664,-84.229955,,,,,0
11339,,LAKEVIEW AV @ ADELITE AV,,39.743,-84.231955,,,,,0
11340,,LAKEVIEW AV @ CLIFTON DR,,39.742301,-84.233554,,,,,0
11341,,LAKEVIEW AV @ ELEANOR AV,,39.741439,-84.235876,,,,,0
11342,,LAKEVIEW AV @ RUTH AV,,39.740996,-84.237273,,,,,0
11343,,LAKEVIEW AV @ DEARBORN AV,Lakeview Av & Dearborn Av,39.74026,-84.239012,,,,,0
11345,,MCARTHUR AV @ SAGE AV,Sage Av & Mc Arthur Av,39.737662,-84.240218,,,,,0
11347,,MCARTHUR AV @ YERGAN CT,Mc Arthur Av & Yergan Ct,39.735689,-84.240154,,,,,0
11349,,MCARTHUR AV @ HEARTSOUL DR,Mc Arthur Av & Tubman Av,39.734128,-84.240092,,,,,0
11350,,MCARTHUR AV @ NICHOLAS RD,Mc Arthur Av & Nicholas Rd,39.732477,-84.239982,,,,,0
11352,,NICHOLAS RD @ 3047 NICHOLAS RD,Nicholas Rd & Millicent Av,39.732463,-84.243431,,,,,0
11353,,NICHOLAS RD @ STOLZ AV,Nicholas Rd & Stolz Av,39.732524,-84.244844,,,,,0
11361,,S GETTYSBURG AV @ NICHOLAS RD,,39.731154,-84.252575,,,,,0
11363,,NICHOLAS RD @ GETTYSBURG,3940 NICHOLAS RD & S GETTYSBURG AVE,39.731288,-84.250242,,,,,0
11365,,NICHOLAS RD @ ALMORE ST,,39.732015,-84.247159,,,,,0
11366,,NICHOLAS RD @ STOLZ AV,,39.732322,-84.244883,,,,,0
11367,,NICHOLAS RD @ 3048 NICHOLAS RD,,39.732272,-84.243339,,,,,0
11369,,NICHOLAS RD @ MCARTHUR AV,,39.732306,-84.240117,,,,,0
11370,,MCARTHUR AV @ HEARTSOUL DR,,39.733603,-84.239702,,,,,0
11372,,MCARTHUR AV @ WOLVERINE DR,MCARTHUR AVE & WOLVERINE AVE,39.735863,-84.239798,,,,,0
11373,,MCARTHUR AV @ SAGE AV,,39.737305,-84.239794,,,,,0
11374,,MCARTHUR AV @ GERMANTOWN ST,,39.738489,-84.239844,,,,,0
11375,,LAKEVIEW AV @ DEARBORN AV,,39.740154,-84.239168,,,,,0
11376,,LAKEVIEW AV @ RUTH AV,,39.7407,-84.237444,,,,,0
11377,,LAKEVIEW AV @ ELEANOR AV,,39.741143,-84.236169,,,,,0
11378,,LAKEVIEW AV @ CLIFTON DR,,39.741977,-84.233987,,,,,0
11379,,LAKEVIEW AV @ ADELITE AV,,39.742713,-84.232118,,,,,0
11381,,LAKEVIEW AV @ RANDOLPH ST,,39.74374,-84.229274,,,,,0
11382,,LAKEVIEW AV @ CLEMENT AV,,39.744412,-84.227578,,,,,0
11384,,GERMANTOWN ST @ DANNER AV,,39.745129,-84.222518,,,,,0
11385,,GERMANTOWN @ EUCLID,,39.74585,-84.22061,,,,,0
11386,,GERMANTOWN ST @ S PAUL LAWRENCE,,39.746802,-84.218046,,,,,0
11388,,GERMANTOWN ST @ S BROADWAY ST,,39.747931,-84.215134,,,,,0
11390,,GERMANTOWN ST @ KRUG ST,,39.749031,-84.212238,,,,,0
11393,,MOUND ST @ NORWOOD AV,,39.752344,-84.208953,,,,,0
11394,,NORWOOD AV @ 334 NORWOOD AV,,39.75261,-84.207053,,,,,0
11395,,GERMANTOWN ST @ S EDWIN C MOSES,,39.752859,-84.205591,,,,,0
11396,,GERMANTOWN ST @ S EDWIN C MOSES,,39.753587,-84.203355,,,,,0
11397,,W 5TH ST @ S ST MARYS ST,,39.755519,-84.198327,,,,,0
11398,,W 5TH ST @ S PERRY ST,Hwy 4 & S Perry St,39.755759,-84.196617,,,,,0
11399,,W 5TH ST @ WILKINSON ST,W 5th St & S Wilkinson St,39.756073,-84.194639,,,,,0
11401,,LAKEVIEW AV @ BURWOOD AV,,39.740354,-84.242407,,,,,0
11403,,LAKEVIEW AV @ FLEETFOOT DR,,39.740316,-84.244894,,,,,0
11404,,LAKEVIEW AV @ MT.CLAIR AV,,39.740322,-84.247176,,,,,0
11405,,LAKEVIEW AV @ BOWIE DR,,39.740396,-84.248556,,,,,0
11406,,LAKEVIEW AV @ LAKESIDE DR,LAKEVIEW AVE & HOME AVE,39.74057,-84.249877,,,,,0
11410,,LAKEVIEW AV @ LA SALLE DR,LAKEVIEW AVE & LASALLE DR,39.740213,-84.24924,,,,,0
11411,,LAKEVIEW AV @ MOUNT CLAIR AV,LAKEVIEW AVE & MOUNT CLAIR AVE,39.740172,-84.246979,,,,,0
11412,,LAKEVIEW AV @ FLEETFOOT AV,,39.740183,-84.245242,,,,,0
11414,,LAKEVIEW AV @ BURWOOD AV,,39.740159,-84.242676,,,,,0
11416,,CURUNDU AV @ SALEM AV,,39.802021,-84.254757,,,,,0
11418,,CURUNDU AV @ JASON AV,,39.801922,-84.258623,,,,,0
11419,,CURUNDU AV @ PARKFIELD PL,,39.801925,-84.260468,,,,,0
11420,,CURUNDU AV @ MARLIN AV,,39.801841,-84.264199,,,,,0
11421,,CURUNDU AV @ NEVADA AV,,39.801534,-84.267179,,,,,0
11422,,CURUNDU AV @ BRUMBAUGH BLVD,,39.801314,-84.268277,,,,,0
11423,,BRUMBAUGH @ FREEPIKE,,39.798093,-84.268336,,,,,0
11424,,FREE PIKE @ HERMOSA DR,,39.797837,-84.270135,,,,,0
11425,,FREE PIKE @ DENLINGER RD,,39.797822,-84.273209,,,,,0
11426,,FREE PIKE @ DARIEN DR,,39.797801,-84.277466,,,,,0
11428,,FREE PIKE @ DENGER DR,,39.797645,-84.288165,,,,,0
11429,,FREE PIKE @ OLIVE RD,FREE PIKE & RAMP,39.797607,-84.291924,,,,,0
11439,,E MAIN ST @ 307 E MAIN ST,,39.797933,-84.305815,,,,,0
11440,,E MAIN ST @ SUNRISE AV,,39.797524,-84.308092,,,,,0
11441,,W MAIN ST @ S BROADWAY ST,,39.797545,-84.311055,,,,,0
11455,,STUBBS DR @ TRUDY AV,,39.79113,-84.305661,,,,,0
11457,,WHISPERING @ SPARKS,,39.793789,-84.304697,,,,,0
11458,,SPARKS ST @ TRUDY AV,,39.791081,-84.304747,,,,,0
11460,,E TROTWOOD BLVD @ STUBBS DR,,39.789033,-84.30601,,,,,0
11470,,E MAIN ST @ SUNRISE AV,,39.7974,-84.308287,,,,,0
11471,,E MAIN ST @ COFFMAN AV,,39.797686,-84.306719,,,,,0
11483,,FREE PIKE @ 5764 FREE PIKE,,39.797516,-84.287768,,,,,0
11485,,FREE PIKE @ DARIEN DR,,39.797647,-84.277583,,,,,0
11486,,FREE PIKE @ DENLINGER RD,,39.7977,-84.273483,,,,,0
11487,,FREE PIKE @ GLEN HELEN RD,FREE PIKE & HERMOSA DR,39.797715,-84.270137,,,,,0
11488,,BRUMBAUGH @ FREEPIKE,BRUMBAUGH BLVD & DARIEN DR,39.798192,-84.268017,,,,,0
11489,,BRUMBAUGH BLVD @ CURUNDU AV,BRUMBAUGH BLVD & CURUNDU AVE,39.80111,-84.268237,,,,,0
11490,,CURUNDU AV @ NEVADA AV,,39.801327,-84.26754,,,,,0
11491,,CURUNDU AV @ MYRON AV,,39.801703,-84.264986,,,,,0
11492,,CURUNDU AV @ PARKFIELD PL,,39.801851,-84.260694,,,,,0
11493,,CURUNDU AV @ JASON AV,,39.801889,-84.258599,,,,,0
11495,,CURUNDU AV @ SALEM AV,,39.801943,-84.254336,,,,,0
11497,,ALEX RD @ INDIAN TRL,,39.645464,-84.243044,,,,,0
11498,,ALEX RD @ ELM ST,,39.647763,-84.242861,,,,,0
11499,,ALEX RD @ ELMWOOD PARK DR,,39.650242,-84.242651,,,,,0
11500,,ALEX RD @ PROGRESS DR,,39.653813,-84.242348,,,,,0
11501,,ALEX RD @ FAME RD,,39.656159,-84.242157,,,,,0
11503,,ALEX RD @ S BRIDLE LN,,39.661238,-84.241721,,,,,0
11504,,ALEX RD @ LIBERTY LN,,39.665198,-84.241377,,,,,0
11505,,ALEX RD @ GIBBONS RD,,39.667746,-84.241066,,,,,0
11506,,ALEX RD @ A/F SAVOY AV,,39.670135,-84.240879,,,,,0
11507,,ALEX RD @ KIMBERLY LN,S ALEX RD & KIMBERLY LN,39.673385,-84.24079,,,,,0
11508,,KIMBERLY LN @ W ALEX BELL RD,,39.674945,-84.237558,,,,,0
11509,,W ALEXNDRSVLE BELLBR @ 1030 W AL,,39.674535,-84.236062,,,,,0
11510,,W ALEXNDRSVLE BELLBR @ STUDENT D,,39.673836,-84.229058,,,,,0
11511,,W ALEXNDRSVLE BELLBR @ EDA AVE,,39.673476,-84.225074,,,,,0
11512,,ALEX BELL & 741,SPRINGBORO PIKE @ 5790 SPRINGBORO PIKE,39.674176,-84.221672,,,,,0
11513,,SPRINGBORO PIKE @ 5770 SPRINGBOR,,39.675463,-84.221562,,,,,0
11515,,SPRINGBORO PK  @  JOMAR AVE,,39.684957,-84.220734,,,,,0
11517,,SELLARS RD @ PORTAGE RD,MAIN ST & PORTAGE RD,39.687797,-84.227529,,,,,0
11518,,SELLARS RD @ VENETIAN WAY,,39.687632,-84.235579,,,,,0
11521,,VANCE RD @ PINNACLE RD,,39.694348,-84.240455,,,,,0
11522,,PINNACLE RD @ HICKORY CREEK NURS,,39.696586,-84.243906,,,,,0
11523,,PINNACLE RD @ PINNACLE PARK DR,,39.696547,-84.247041,,,,,0
11524,,S GETTYSBURG AV @ CAYLOR RD,S GETTYSBURG AVE & GUTHRIE RD,39.707789,-84.251512,,,,,0
11525,,S GETTYSBURG AV @ STONEY HOLLOW,S GETTYSBURG AVE & GUTHRIE RD,39.710386,-84.251542,,,,,0
11526,,S GETTYSBURG AV @ 2560 S GETTYSB,S GETTYSBURG AVE & GUTHRIE RD,39.712599,-84.251571,,,,,0
11527,,S GETTYSBURG AV @ GUTHRIE RD,S GETTYSBURG AVE & GUTHRIE RD,39.720496,-84.25205,,,,,0
11529,,S GETTYSBURG AV @ 1816 S GETTYSB,,39.728836,-84.252517,,,,,0
11531,,GETTYSBURG @ GERMANTOWN,,39.734831,-84.252628,,,,,0
11532,,S GETTYSBURG AV @ 806 S GETTYSBU,S Gettysburg Av & Germantown St,39.736501,-84.252719,,,,,0
11533,,S GETTYSBURG AV @ LAKESIDE DR,,39.740063,-84.252921,,,,,0
11535,,S GETTYSBURG AV @ RAMP 35,S Gettysburg Av & Kenesaw Av,39.743408,-84.252925,,,,,0
11536,,S GETTYSBURG AV @ MCCALL ST,,39.746616,-84.252974,,,,,0
11540,,S GETTYSBURG AV @ MCCALL ST,S GETTYSBURG AVE & MCCALL ST,39.746811,-84.253272,,,,,0
11541,,S GETTYSBURG AV @ KENESAW AV,,39.743624,-84.253147,,,,,0
11543,,S GETTYSBURG AV @ LAKESIDE DR,,39.740233,-84.253104,,,,,0
11544,,S GETTYSBURG AV @ 807 S GETTYSBU,,39.736702,-84.253078,,,,,0
11545,,S GETTYSBURG AV @ GERMANTOWN ST,S GETTYSBURG AVE & GERMANTOWN ST,39.734336,-84.253098,,,,,0
11546,,S GETTYSBURG AV @ NICHOLAS RD,,39.731351,-84.252834,,,,,0
11547,,S GETTYSBURG AV @ 1931 MONDAY PRGRM,,39.729111,-84.252765,,,,,0
11549,,S GETTYSBURG AV @ FRYTOWN RD,S GETTYSBURG AVE & FRYTOWN RD,39.717131,-84.252877,,,,,0
11550,,S GETTYSBURG AV @ STONY HOLLOW,S GETTYSBURG AVE & GUTHRIE RD,39.710349,-84.252789,,,,,0
11551,,S GETTYSBURG AV @ CAYLOR RD,S GETTYSBURG AVE & GUTHRIE RD,39.707859,-84.2527,,,,,0
11552,,PINNACLE RD @ 3680 PINNACLE RD,Pinnacle Rd & Unnamed,39.696618,-84.248486,,,,,0
11555,,VANCE RD @ PARALLEL RD,Vance Rd & Paris Dr,39.692114,-84.239873,,,,,0
11557,,SELLARS RD @ BEECHGROVE RD,MAIN ST & BEECHGROVE RD,39.687206,-84.236128,,,,,0
11560,,SPRINGBORO PK @ S DIXIE HWY (JOMAR),,39.685159,-84.220979,,,,,0
11562,,SPRINGBORO PIKE @ 5747 SPRINGBOR,,39.675705,-84.221788,,,,,0
11564,,W ALEXNDRSVLE BELLBR @ EDA DR,,39.673613,-84.225178,,,,,0
11565,,W ALEXNDRSVLE BELLBR @ STUDENT D,,39.673936,-84.228682,,,,,0
11566,,W ALEXNDRSVLE BELLBR @ 600 W ALE,,39.67439,-84.235232,,,,,0
11567,,KIMBERLY LN @ W ALEXNDRSVLE BELL,,39.674875,-84.237991,,,,,0
11568,,ALEX RD @ REGAL AV,,39.671324,-84.240917,,,,,0
11569,,ALEX RD @ ASTOR AV,,39.669413,-84.24109,,,,,0
11570,,ALEX RD @ W GIBBONS RD,,39.667525,-84.241271,,,,,0
11571,,ALEX RD @ LIBERTY LN,,39.664982,-84.241532,,,,,0
11572,,ALEX RD @ BISHOP DR,,39.661389,-84.241919,,,,,0
11573,,ALEX RD @ KING RICHARD PKY,,39.658792,-84.242114,,,,,0
11574,,ALEX RD @ FAME RD,,39.655866,-84.242369,,,,,0
11575,,ALEX RD @ PROGRESS RD,,39.654361,-84.242488,,,,,0
11576,,ALEX RD @ SHELTERING TREE DR,,39.650916,-84.242773,,,,,0
11577,,ALEX RD @ S ELM ST,,39.648217,-84.243,,,,,0
11583,,E 5TH ST @ JEFFERSON ST,E 5th St & S Main St,39.756809,-84.189847,,,,,0
11585,,E 5TH ST @ BROWN ST,E 5TH ST & CONRAIL RAILROAD,39.757138,-84.186111,,,,,0
11586,,E 5TH ST @ WAYNE AV,E 5TH ST & CONRAIL RAILROAD,39.757017,-84.182389,,,,,0
11588,,WAYNE AV @ JONES ST,,39.75495,-84.179912,,,,,0
11589,,WAYNE AV @ HICKORY ST,,39.753126,-84.17802,,,,,0
11590,,WAYNE AV @ ADAMS ST,,39.751872,-84.176806,,,,,0
11591,,WAYNE AV @ CLOVER ST,,39.750656,-84.175466,,,,,0
11592,,WAYNE AV @ OAK ST,,39.74956,-84.174283,,,,,0
11593,,WAYNE AV @ WYOMING ST,Wayne Av & Park Dr,39.747955,-84.172722,,,,,0
11594,,WAYNE AV @ 1555 WAYNE AV,Wayne Av & Greenwood Av,39.74733,-84.172097,,,,,0
11595,,WAYNE AV @ GLENCOE AV,,39.74595,-84.170484,,,,,0
11597,,WAYNE AV @ GEBHART ST,,39.743835,-84.168244,,,,,0
11598,,WAYNE AV @ VOLKENAND AV,,39.7425,-84.166883,,,,,0
11599,,WAYNE AV @ ANDERSON ST,,39.741561,-84.165709,,,,,0
11600,,WAYNE AV @ EDGAR AVE,WAYNE AVE & EDGAR AVE,39.740621,-84.16436,,,,,0
11601,,WAYNE & WILMINGTON,BECKMAN ST,39.738357,-84.162945,,,,,0
11602,,WILMINGTON AV @ RIVARD PL,,39.737381,-84.162891,,,,,0
11604,,WILMINGTON AV @ CONSTANTIA AV,,39.734694,-84.161172,,,,,0
11605,,WILMINGTON AV @ SHROYER RD,,39.733356,-84.159847,,,,,0
11627,,WILMINGTON AV @ THORPE DR,,39.732081,-84.15839,,,,,0
11628,,WILMINGTON AV @ IRVING AV,,39.733594,-84.159857,,,,,0
11631,,WILMINGTON AV @ 10 WILMINGTON AV,,39.737354,-84.162688,,,,,0
11632,,WAYNE & WILMINGTON,,39.73948,-84.162703,,,,,0
11651,,WAYNE AV @ FAUVER AV,Wayne Av & Fauver Av,39.73858,-84.141154,,,,,0
11652,,WAYNE AV @ COVENTRY RD,Wayne Av & Coventry Rd,39.738721,-84.143803,,,,,0
11653,,WAYNE AV @ PERSHING BLVD,Wayne Av & John Glenn Rd,39.738854,-84.146052,,,,,0
11656,,WAYNE AV @ ARBOR AV,Wayne Av & Arbor Av,39.739171,-84.15181,,,,,0
11657,,WAYNE AV @ CREIGHTON AV,Wayne Av & Holly Av,39.739295,-84.154306,,,,,0
11658,,WAYNE AV @ PHILLIPS AV,Wayne Av & Holly Av,39.739392,-84.155908,,,,,0
11659,,WAYNE AV @ HIGHLAND AV,,39.739506,-84.159527,,,,,0
11660,,WAYNE AV @ WILMINGTON AV,,39.739631,-84.162529,,,,,0
11661,,WAYNE AV @ EDGAR AV,WAYNE AVE & EDGAR AVE,39.740683,-84.164113,,,,,0
11663,,WAYNE AV @ VOLKENAND AV,,39.742315,-84.166528,,,,,0
11664,,WAYNE AV @ GEBHART ST,,39.743735,-84.16804,,,,,0
11665,,WAYNE AV @ 1616 WAYNE AV,,39.7455,-84.169869,,,,,0
11666,,WAYNE AV @ WYOMING ST,,39.747266,-84.17171,,,,,0
11668,,WAYNE AV @ CLOVER ST,,39.750342,-84.175028,,,,,0
11669,,WAYNE AV @ BRADFORD ST,,39.752341,-84.177088,,,,,0
11671,,WAYNE AV @ BAINBRIDGE ST,,39.754805,-84.179594,,,,,0
11673,,E 5TH ST @ WAYNE AV,,39.757144,-84.183163,,,,,0
11674,,E 5TH ST @ WYANDOT ST,,39.757327,-84.186167,,,,,0
11675,,WAYNE AV @ WILMINGTON AV,,39.739469,-84.16139,,,,,0
11676,,WAYNE AV @ HIGHLAND AV,WAYNE AVE & HIGHLAND AVE,39.739375,-84.159719,,,,,0
11678,,WAYNE AV @ EPWORTH AV,,39.73927,-84.157063,,,,,0
11679,,WAYNE AV @ CREIGHTON AV,,39.739103,-84.15471,,,,,0
11680,,WAYNE AV @ WATERVLIET AV,,39.738958,-84.151581,,,,,0
11681,,WAYNE AV @ REVERE AV,,39.738896,-84.149585,,,,,0
11682,,WAYNE AV @ KING AV,,39.738784,-84.147513,,,,,0
11683,,WAYNE AV @ JOHN GLENN RD,,39.738643,-84.145338,,,,,0
11685,,WAYNE AV @ FAUVER AV,,39.738406,-84.141369,,,,,0
11708,,FORRER BLVD @ WOODMAN DR,,39.715207,-84.125409,,,,,0
11721,,E DOROTHY LN @ STROOP RD,E Dorothy Ln & E Blackhawk Rd,39.697207,-84.106504,,,,,0
11722,,GLENGARRY DR @ E STROOP RD,,39.694066,-84.106844,,,,,0
11723,,GLENGARRY DR @ 3009 GLENGARRY DR,,39.694316,-84.110373,,,,,0
11724,,GLENGARRY DR @ POWHATTON PL,,39.694795,-84.111964,,,,,0
11726,,E DOROTHY LN @ POWHATTON PL,,39.698298,-84.109803,,,,,0
11730,,E DOROTHY LN @ WOODMAN DR,E Dorothy Ln & Woodman Dr,39.702732,-84.124995,,,,,0
11741,,FORRER BLVD @ WOODMAN DR,,39.715395,-84.125485,,,,,0
11743,,FORRER BLVD @ 2000 FORRER BLVD,,39.715477,-84.127114,,,,,0
11744,,FORRER BLVD @ 2000 FORRER BLVD,,39.715613,-84.129764,,,,,0
11746,,FORRER BLVD @ CULVER AV,,39.715822,-84.133433,,,,,0
11747,,FORRER BLVD @ HAZEL AV,,39.715946,-84.136636,,,,,0
11748,,FORRER BLVD @ MAYL DR,Forrer Blvd & Mayl Dr,39.716236,-84.139507,,,,,0
11749,,FORRER BLVD @ SMITHVILLE RD,,39.71627,-84.14212,,,,,0
11750,,PATTERSON RD @ SMITHVILLE RD,,39.723732,-84.142595,,,,,0
11751,,PATTERSON RD @ MARTEL DR,,39.723789,-84.143499,,,,,0
11752,,PATTERSON RD @ KENMORE AV,,39.723937,-84.146606,,,,,0
11753,,PATTERSON RD @ WHITE OAK DR,,39.724061,-84.149072,,,,,0
11754,,PATTERSON RD @ REVERE AV,,39.724181,-84.151249,,,,,0
11755,,PATTERSON RD @ WILMINGTON AV,,39.724321,-84.153496,,,,,0
11756,,PATTERSON RD @ HAMPSHIRE RD,,39.724445,-84.156062,,,,,0
11757,,PATTERSON RD @ SHADOWLAWN AV,PATTERSON RD & FIRWOOD DR,39.72474,-84.1591,,,,,0
11758,,PATTERSON RD @ SHROYER RD,,39.724721,-84.160415,,,,,0
11759,,IRVING AV @ FIRWOOD DR,,39.732384,-84.162898,,,,,0
11761,,IRVING AV @ ACACIA DR,,39.733456,-84.169933,,,,,0
11762,,IRVING AV @ MAHRT AV,,39.734104,-84.171557,,,,,0
11763,,IRVING AV @ EVANSTON AV,,39.734389,-84.173953,,,,,0
11765,,IRVING AV @ LAWNVIEW AV,,39.733965,-84.176727,,,,,0
11767,,IRVING AV @ BROWN ST,,39.733406,-84.180128,,,,,0
11768,,N SMITHVILLE RD @ FAIRPARK AV,,39.774448,-84.135423,,,,,0
11769,,N SMITHVILLE RD @ RADIO RD,,39.772923,-84.135605,,,,,0
11770,,N SMITHVILLE RD @ RANGELEY AV,,39.771965,-84.137137,,,,,0
11772,,N SMITHVILLE RD @ 2ND ST,,39.768378,-84.137534,,,,,0
11773,,S SMITHVILLE RD @ 3RD ST,,39.765593,-84.137844,,,,,0
11774,,S SMITHVILLE RD @ 5TH ST,,39.762609,-84.138037,,,,,0
11775,,S SMITHVILLE RD @ BURKHARDT RD,,39.760389,-84.138237,,,,,0
11780,,S SMITHVILLE RD @ LINDEN AV,S Smithville Rd & Linden Av,39.747282,-84.139785,,,,,0
11782,,S SMITHVILLE RD @ MARIMONT DR,,39.744528,-84.139901,,,,,0
11783,,S SMITHVILLE RD @ CLEVELAND AV,,39.742826,-84.140086,,,,,0
11785,,S SMITHVILLE RD @ ARCADIA BLVD,,39.740105,-84.140326,,,,,0
11786,,S SMITHVILLE RD @ WAYNE AV,S Smithville Rd & Pleasant View Av,39.738714,-84.140577,,,,,0
11787,,S SMITHVILLE RD @ WOODBINE AV,,39.735955,-84.140754,,,,,0
11788,,S SMITHVILLE RD @ JOHN GLENN RD,S Smithville Rd & John Glenn Rd,39.734181,-84.141008,,,,,0
11789,,S SMITHVILLE RD @ WATERVLIET AV,S Smithville Rd & Watervliet Av,39.730816,-84.141334,,,,,0
11790,,S SMITHVILLE RD @ BELLAIRE AV,S Smithville Rd & Bellaire Av,39.728969,-84.141497,,,,,0
11792,,S SMITHVILLE RD @ EWALT AV,,39.725577,-84.141717,,,,,0
11793,,S SMITHVILLE RD @ PATTERSON RD,S Smithville Rd & Patterson Rd,39.723909,-84.141963,,,,,0
11794,,S SMITHVILLE RD @ ASHLAND AV,,39.721575,-84.142092,,,,,0
11795,,S SMITHVILLE RD @ TABOR AV,S Smithville Rd & Tabor Av,39.719527,-84.142347,,,,,0
11796,,S SMITHVILLE RD @ FORRER BLVD,,39.716435,-84.142573,,,,,0
11797,,S SMITHVILLE RD @ WILMINGTON PIK,,39.713351,-84.142868,,,,,0
11802,,E DOROTHY LN @ WILMINGTON PK,,39.703581,-84.140127,,,,,0
11803,,E DOROTHY LN @ LARUE DR,,39.703504,-84.138353,,,,,0
11804,,E DOROTHY LN @ BULAH DR,,39.703265,-84.134381,,,,,0
11807,,WOODMAN DR @ E DOROTHY LN,Woodman Dr & E Dorothy Ln,39.702608,-84.123418,,,,,0
11808,,WOODMAN DR @ 3085 WOODMAN DR,,39.699418,-84.123639,,,,,0
11809,,WOODMAN DR @ DANUBE CT,,39.697366,-84.124076,,,,,0
11810,,WOODMAN DR @ STOCKER DR,,39.696021,-84.126541,,,,,0
11811,,WOODMAN DR @ GRICE LN,,39.694913,-84.127303,,,,,0
11812,,WOODMAN DR @ DORIS DR,,39.692246,-84.127571,,,,,0
11813,,WOODMAN DR @ STROOP RD,,39.688923,-84.128033,,,,,0
11815,,BIGGER RD @ DAVID RD,,39.67998,-84.125223,,,,,0
11816,,BIGGER RD @ POLEN DR,,39.677868,-84.12546,,,,,0
11817,,BIGGER RD @ CAROL PKWY,,39.6746,-84.125704,,,,,0
11818,,BIGGER RD @ BELLOAK DR,,39.672519,-84.125979,,,,,0
11819,,BIGGER RD @ 5099 BIGGER RD,,39.669845,-84.126114,,,,,0
11820,,BIGGER RD @ RAHN RD,,39.667435,-84.12634,,,,,0
11824,,BIGGER RD @ E RAHN RD,Bigger Rd & E Rahn Rd,39.66701,-84.126036,,,,,0
11825,,BIGGER RD @ GREENOAK CT,Bigger Rd & Greenoak Ct,39.670249,-84.12578,,,,,0
11826,,BIGGER RD @ BELLOAK DR,Bigger Rd & Belloak Dr,39.672266,-84.125641,,,,,0
11827,,BIGGER RD @ 4800 BIGGER RD,Bigger Rd & Polen Dr,39.675131,-84.125349,,,,,0
11828,,BIGGER RD @ POLEN DR,Bigger Rd & Polen Dr,39.677647,-84.125092,,,,,0
11829,,BIGGER RD @ DAVID RD,Bigger Rd & E David Rd,39.680084,-84.124906,,,,,0
11830,,E DAVID RD @ WILMINGTON PIKE,E David Rd & Wilmington Pike,39.680664,-84.123212,,,,,0
11833,,WOODMAN DR @ E STROOP RD,,39.689396,-84.12769,,,,,0
11834,,WOODMAN DR @ 3720 WOODMAN DR,,39.692031,-84.127382,,,,,0
11835,,WOODMAN DR @ GRICE LN,,39.694705,-84.127146,,,,,0
11836,,WOODMAN DR @ STOCKER DR,,39.69593,-84.126413,,,,,0
11837,,WOODMAN DR @ DANUBE CT,,39.69701,-84.124243,,,,,0
11838,,WOODMAN DR @ 3080 WOODMAN DR,,39.699076,-84.12354,,,,,0
11839,,WOODMAN DR @ DOROTHY LN,,39.701214,-84.123342,,,,,0
11841,,E DOROTHY LN @ 2001 DOROTHY LN,,39.702876,-84.124705,,,,,0
11844,,E DOROTHY LN @ MOHICAN AV,,39.703413,-84.134762,,,,,0
11845,,E DOROTHY LN @ BOBBIE PL,,39.703614,-84.138324,,,,,0
11846,,E DOROTHY LN @ HOBART AV,,39.7037,-84.13987,,,,,0
11848,,WILMINGTON PIKE @ ANSEL DR,,39.707834,-84.1427,,,,,0
11850,,WILMINGTON PIKE @ IMPERIAL BLVD,,39.710621,-84.142923,,,,,0
11851,,S SMITHVILLE RD @ DUTCHESS AV,,39.713528,-84.14268,,,,,0
11852,,S SMITHVILLE RD @ FORRER BLVD,,39.716018,-84.142439,,,,,0
11854,,S SMITHVILLE RD @ TABOR AV,,39.719307,-84.142132,,,,,0
11855,,S SMITHVILLE RD @ ASHLAND AV,,39.721307,-84.141947,,,,,0
11856,,S SMITHVILLE RD @ PATTERSON RD,,39.723513,-84.141716,,,,,0
11858,,S SMITHVILLE RD @ HIGHVIEW AV,,39.726512,-84.14146,,,,,0
11859,,S SMITHVILLE RD @ BELLAIRE AV,,39.728193,-84.141152,,,,,0
11860,,S SMITHVILLE RD @ WATERVLIET AV,,39.730117,-84.141047,,,,,0
11861,,S SMITHVILLE RD @ JOHN GLENN RD,,39.733908,-84.140732,,,,,0
11862,,S SMITHVILLE RD @ WOODBINE AV,,39.735767,-84.140578,,,,,0
11864,,S SMITHVILLE RD @ WAYNE AV,,39.738258,-84.140354,,,,,0
11865,,S SMITHVILLE RD @ ARCADIA BLVD,,39.740035,-84.140153,,,,,0
11867,,S SMITHVILLE RD @ CORINTH BLVD,,39.741679,-84.140018,,,,,0
11875,,S SMITHVILLE RD @ GUMMER AV,,39.755409,-84.138719,,,,,0
11876,,S SMITHVILLE RD @ SUMAN AV,S Smithville Rd & Suman Av,39.756564,-84.138499,,,,,0
11877,,S SMITHVILLE RD @ HUFFMAN AV,S Smithville Rd & Huffman Av,39.757456,-84.138394,,,,,0
11878,,S SMITHVILLE RD @ BURKHARDT RD,S Smithville Rd & Burkhardt Av,39.760116,-84.138126,,,,,0
11879,,S SMITHVILLE RD @ E 5TH ST,,39.762368,-84.137945,,,,,0
11881,,N SMITHVILLE RD @ COLIN KELLY DR,,39.768193,-84.137492,,,,,0
11882,,N SMITHVILLE RD @ WOODLEY RD,,39.769664,-84.137345,,,,,0
11884,,N SMITHVILLE RD @ RADIO RD,N Smithville Rd & Radio Rd,39.772629,-84.135523,,,,,0
11885,,N SMITHVILLE RD @ FAIR PARK AV,N Smithville Rd & Fair Park Av,39.774432,-84.135301,,,,,0
11886,,N SMITHVILLE RD @ SPRINGFIELD PI,,39.778077,-84.138061,,,,,0
11887,,WAYNE AV @ E 4TH ST,,39.759638,-84.184714,,,,,0
11888,,WAYNE AV @ JACKSON ST,Wayne Av & E 4th St,39.758663,-84.183808,,,,,0
11890,,E 5TH ST @ BAINBRIDGE ST,,39.757328,-84.180556,,,,,0
11891,,E 5TH ST @ DAYTON TOWERS DR,,39.757603,-84.17888,,,,,0
11893,,E 5TH ST @ HIGH,E 5th St & High St,39.758099,-84.175787,,,,,0
11894,,E 5TH ST @ LABELLE ST,E FIFTH ST & LA BELLE ST,39.758542,-84.173405,,,,,0
11895,,E 5TH ST @ MCCLURE ST,E FIFTH ST & MCCLURE ST,39.7589,-84.171121,,,,,0
11898,,E 5TH ST @ HUFFMAN AV,,39.759757,-84.16604,,,,,0
11899,,E 5TH ST @ COLUMBUS ST,,39.759989,-84.164604,,,,,0
11900,,E 5TH ST @ LINDEN AV,,39.760419,-84.161859,,,,,0
11901,,E 5TH ST @ S GARFIELD ST,,39.760722,-84.160004,,,,,0
11903,,E 5TH ST @ S FINDLAY ST,,39.761329,-84.15634,,,,,0
11905,,MARTZ AV @ BURKHARDT AV,,39.761193,-84.153571,,,,,0
11907,,MARTZ AV @ HUFFMAN AV,,39.758617,-84.153795,,,,,0
11909,,HUFFMAN AV @ GILBERT AV,,39.758374,-84.152364,,,,,0
11910,,HUFFMAN AV @ HOLLIER AV,,39.758226,-84.150449,,,,,0
11914,,HUFFMAN AV @ S WRIGHT AV,,39.757844,-84.14346,,,,,0
11916,,HUFFMAN AV @ HEISS AV,,39.757714,-84.141053,,,,,0
11917,,HUFFMAN AV @ S SMITHVILLE RD,,39.757484,-84.138102,,,,,0
11918,,HUFFMAN AV @ MERTLAND AV,HUFFMAN AVE & MERTLAND AVE,39.757345,-84.135894,,,,,0
11919,,HUFFMAN AV @ KESTER AV,HUFFMAN AVE & KESTER AVE,39.757204,-84.133727,,,,,0
11920,,HUFFMAN AV @ SHEDBORNE AV,HUFFMAN AVE & SHEDBORNE AVE,39.757124,-84.131925,,,,,0
11921,,SHEDBORNE AV @ BURKHARDT RD,SHEDBORNE AVE & BURKHARDT AVE,39.759409,-84.131362,,,,,0
11922,,BURKHARDT RD @ 4740 BURKHARDT RD,,39.759867,-84.129555,,,,,0
11923,,BURKHARDT RD @ VALENTINE DR,BURKHARDT AVE & MERTLAND AVE,39.759644,-84.125025,,,,,0
11925,,BURKHARDT RD @ WOODMAN DR,,39.759422,-84.121313,,,,,0
11926,,BURKHARDT RD @ WOODMAN DR,,39.759281,-84.119464,,,,,0
11927,,BURKHARDT RD @ COSLER DR,BURKHARDT AVE & COSLER DR,39.759831,-84.127263,,,,,0
11928,,BURKHARDT RD @ GRANVILLE PL,,39.759138,-84.117014,,,,,0
11930,,BURKHARDT RD @ DODGE CT,,39.758881,-84.112975,,,,,0
11931,,BURKHARDT RD @ SPINNING RD,,39.758745,-84.110779,,,,,0
11932,,SPINNING RD @ 635 SPINNING RD,,39.757341,-84.110076,,,,,0
11933,,SPINNING RD @ DUQUESNE AV,,39.755657,-84.110246,,,,,0
11934,,SPINNING RD @ ROBINWOOD AV,,39.753567,-84.110443,,,,,0
11935,,SPINNING RD @ EASTMAN AV,Spinning Rd & Eastman Av,39.751329,-84.110738,,,,,0
11938,,SPINNING RD @ PENN AV,,39.745189,-84.111252,,,,,0
11946,,LINDEN AV @ 4514 LINDEN AV,,39.742998,-84.113491,,,,,0
11947,,LINDEN AV @ 4433 LINDEN AV,,39.743514,-84.115176,,,,,0
11949,,LINDEN AV @ WOODMAN DR,,39.744112,-84.119434,,,,,0
11953,,SPINNING RD @ ROBINWOOD AV,,39.753565,-84.110326,,,,,0
11954,,SPINNING RD @ MARBLEHEAD DR,,39.755415,-84.110169,,,,,0
11955,,SPINNING RD @ 700 SPINNING RD,SPINNING RD & DUQUESNE AVE,39.75683,-84.10989,,,,,0
11956,,SPINNING RD @ BURKHARDT RD,SPINNING RD & BURKHARDT AVE,39.757946,-84.109784,,,,,0
11957,,BURKHARDT RD @ KETCHAM ST,,39.758939,-84.112206,,,,,0
11958,,BURKHARDT RD @ ABILENE CT,,39.759107,-84.115118,,,,,0
11959,,BURKHARDT RD @ PANDORA DR,,39.759365,-84.118676,,,,,0
11960,,BURKHARDT RD @ WOODMAN DR,,39.759537,-84.121279,,,,,0
11961,,BURKHARDT RD @ VALENTINE DR,Burkhardt Av & Valentine Dr,39.759828,-84.124687,,,,,0
11963,,COSLER DR @ BURKHARDT,Cosler Dr & Speice Av,39.759345,-84.127172,,,,,0
11964,,COSLER DR @ FULMER DR,,39.757063,-84.126967,,,,,0
11966,,COSLER DR @ ALEXANDER DR,,39.75444,-84.128607,,,,,0
11967,,COSLER DR @ TUTTLE AV,,39.753709,-84.129675,,,,,0
11969,,TUTTLE AV @ KESTER AV,,39.753871,-84.1341,,,,,0
11970,,TUTTLE AV @ MERTLAND AV,,39.754028,-84.136252,,,,,0
11972,,TUTTLE AV @ S SMITHVILLE RD,,39.754124,-84.138659,,,,,0
11974,,HUFFMAN AV @ HEISS AV,,39.757754,-84.140833,,,,,0
11976,,HUFFMAN AV @ S WRIGHT AV,,39.757946,-84.144331,,,,,0
11977,,HUFFMAN AV @ S GARLAND AV,,39.758055,-84.146211,,,,,0
11978,,HUFFMAN AV @ S HEDGES AV,,39.758126,-84.147635,,,,,0
11979,,HUFFMAN AV @ HOLLIER AV,,39.758266,-84.149781,,,,,0
11980,,S JERSEY ST @ 5TH STREET,S JERSEY ST & EASTERN CT,39.758682,-84.152678,,,,,0
11983,,S JERSEY ST @ HUFFMAN AVE,S JERSEY ST & BURKHARDT AVE,39.761387,-84.152434,,,,,0
11984,,E 5TH ST @ S MONMOUTH ST,E 5TH ST & S PHILADELPHIA ST,39.761805,-84.153482,,,,,0
11986,,E 5TH ST @ S FINDLAY ST,E 5th St & S Horton St,39.761353,-84.156724,,,,,0
11988,,E 5TH ST @ S GARFIELD ST,E 5th St & Hivling St,39.760824,-84.160056,,,,,0
11989,,E 5TH ST @ S VAN LEAR ST,E 5th St & Linden Av,39.760591,-84.161469,,,,,0
11990,,E 5TH ST @ COLUMBUS ST,E 5th St & Huffman Av,39.760098,-84.164496,,,,,0
11991,,E 5TH ST @ HUFFMAN AV,E 5th St & Huffman Av,39.759757,-84.16658,,,,,0
11992,,E 5TH ST @ S JUNE ST,E 5th St & S June St,39.759318,-84.169264,,,,,0
11993,,E 5TH ST @ S TERRY ST,,39.759162,-84.170376,,,,,0
11994,,E 5TH ST @ DUTOIT ST,E 5th St & La Belle St,39.758654,-84.173421,,,,,0
11995,,E 5TH ST @ HIGH ST,E 5th St & High St,39.758492,-84.17441,,,,,0
11996,,E 5TH ST @ KEOWEE ST,,39.758154,-84.176586,,,,,0
11998,,E 5TH ST @ 1111 E 5TH ST,,39.757652,-84.179267,,,,,0
12000,,E 5TH ST @ WALNUT ST,,39.757425,-84.181308,,,,,0
12001,,WAYNE AV @ E 5TH ST,,39.756876,-84.181726,,,,,0
12002,,WAYNE AV @ 4TH ST,,39.75862,-84.183532,,,,,0
12005,,S MAIN ST @ W 5TH ST,,39.756731,-84.191316,,,,,0
12006,,S MAIN ST @ 6TH ST,S Main St & W 5th St,39.755398,-84.190881,,,,,0
12007,,MAIN & FRANKLIN,S Main St & Franklin St,39.753668,-84.190395,,,,,0
12008,,S MAIN ST @ LINCOLN ST,,39.749516,-84.18913,,,,,0
12009,,S MAIN ST @ STOUT ST,,39.748308,-84.188789,,,,,0
12010,,S MAIN ST @ APPLE ST,S MAIN ST & W APPLE ST,39.746222,-84.188259,,,,,0
12011,,S MAIN ST @ WYOMING ST,,39.744873,-84.188045,,,,,0
12013,,E STEWART ST @ S MAIN ST,,39.740428,-84.186173,,,,,0
12015,,E STEWART ST @ BROWN ST,,39.740801,-84.182674,,,,,0
12024,,WILMINGTON PIKE @ 3045 WILMINGTO,,39.702081,-84.141813,,,,,0
12026,,WILMINGTON PIKE @ 3313 WILMINGTO,,39.698025,-84.1413,,,,,0
12073,,E STROOP RD @ GLASER DR,,39.688844,-84.129329,,,,,0
12091,,MAIN & STEWART,E Stewart St & Hwy 48,39.74066,-84.186299,,,,,0
12092,,S MAIN ST @ FAIRGROUND AV,,39.741946,-84.186882,,,,,0
12094,,S MAIN ST @ WYOMING ST,,39.744515,-84.187606,,,,,0
12095,,S MAIN ST @ APPLE ST,,39.746177,-84.188118,,,,,0
12096,,S MAIN ST @ STOUT ST,,39.748108,-84.188642,,,,,0
12098,,S MAIN ST @ S PATTERSON BLVD,,39.750553,-84.189257,,,,,0
12099,,MAIN & FRANKLIN,S MAIN ST & GAINSBOROUGH RD,39.754127,-84.190228,,,,,0
12101,,S MAIN ST @ 5TH ST,,39.756099,-84.190697,,,,,0
12104,,E STEWART ST @ BROWN ST,E Stewart St & Rubicon Rd,39.74102,-84.182991,,,,,0
12105,,IRVING AV @ BROWN ST,,39.733433,-84.17981,,,,,0
12107,,IRVING AV @ LAWNVIEW AV,,39.73382,-84.176907,,,,,0
12109,,IRVING AV @ EVANSTON AV,,39.734321,-84.173821,,,,,0
12110,,IRVING AV @ MAHRT AV,,39.734097,-84.171711,,,,,0
12111,,IRVING AV @ ACACIA DR,,39.733213,-84.169866,,,,,0
12113,,IRVING AV @ MIDBLOCK,,39.732747,-84.16558,,,,,0
12114,,IRVING AV @ FIRWOOD DR,,39.732326,-84.163181,,,,,0
12115,,IRVING AV @ KLING DR,,39.732251,-84.161368,,,,,0
12117,,SHROYER RD @ SHELBY AV,,39.730234,-84.160355,,,,,0
12118,,SHROYER RD @ KREBS AV,,39.728351,-84.160486,,,,,0
12119,,SHROYER RD @ ROY AV,,39.726023,-84.160657,,,,,0
12120,,SHROYER RD @ PATTERSON RD,,39.724932,-84.16077,,,,,0
12121,,PATTERSON RD @ SHROYER RD,,39.724638,-84.160241,,,,,0
12122,,PATTERSON RD @ DEVONSHIRE,,39.724514,-84.15879,,,,,0
12123,,PATTERSON RD @ HAMPSHIRE RD,,39.724385,-84.155966,,,,,0
12125,,PATTERSON RD @ WILMINGTON AV,,39.724112,-84.152714,,,,,0
12126,,PATTERSON RD @ REVERE AV,,39.724063,-84.151112,,,,,0
12127,,PATTERSON RD @ WHITE OAK DR,,39.723937,-84.148882,,,,,0
12128,,PATTERSON RD @ KENMORE AV,,39.723909,-84.146308,,,,,0
12129,,PATTERSON RD @ MARTEL DR,,39.723755,-84.144012,,,,,0
12130,,PATTERSON RD @ S SMITHVILLE RD,,39.723619,-84.142133,,,,,0
12131,,FORRER BLVD @ S SMITHVILLE RD,,39.716106,-84.141625,,,,,0
12132,,FORRER BLVD @ MAYL DR,,39.715988,-84.13973,,,,,0
12133,,FORRER BLVD @ HAZEL AV,,39.715823,-84.136938,,,,,0
12134,,FORRER BLVD @ CULVER AV,,39.715676,-84.133741,,,,,0
12135,,FORRER BLVD @ 2000 FORRER BLVD,,39.71545,-84.129602,,,,,0
12136,,FORRER BLVD @ 2000 FORRER BLVD,,39.715331,-84.127386,,,,,0
12137,,KETTERING REC. CENTER,Glengarry Dr & Vineyard Av,39.695214,-84.114222,,,,,0
12139,,N GETTYSBURG AV @ FRANCES AV (FAR),,39.751223,-84.253029,,,,,0
12140,,N GETTYSBURG AV @ W 2ND ST,,39.754366,-84.253085,,,,,0
12141,,N GETTYSBURG AV @ EDISON ST,,39.756094,-84.253123,,,,,0
12143,,N GETTYSBURG AV @ 900 N GETTYSBU,,39.759646,-84.253207,,,,,0
12144,,N GETTYSBURG AV @ HOOVER AV,,39.761157,-84.253233,,,,,0
12145,,N GETTYSBURG AV @ FAIRBANKS AV,,39.763479,-84.253288,,,,,0
12146,,N GETTYSBURG AV @ DANDRIDGE AV,,39.765458,-84.253306,,,,,0
12147,,N GETTYSBURG AV @ FRUEDENBERGER,,39.768568,-84.253349,,,,,0
12148,,N GETTYSBURG AV @ JAMES H MCGEE,,39.771485,-84.253439,,,,,0
12149,,N GETTYSBURG AV @ LITTLE RICHMON,,39.775984,-84.253612,,,,,0
12150,,N GETTYSBURG AV @  ST JAMES AV,,39.789086,-84.253699,,,,,0
12151,,N GETTYSBURG AV @ HILLCREST AV,,39.790394,-84.253717,,,,,0
12152,,N GETTYSBURG AV @ GOTHAM AV,,39.792315,-84.253711,,,,,0
12153,,N GETTYSBURG AV @ HOLYOKE AV,,39.79467,-84.253733,,,,,0
12154,,FREE PIKE @ N GETTYSBURG AV,,39.798028,-84.25563,,,,,0
12155,,FREE PIKE @ ENGLAND AV,,39.797973,-84.258393,,,,,0
12156,,FREE PIKE @ FAIR LN,,39.797961,-84.259879,,,,,0
12157,,FREE PIKE @ ARLENE AV,,39.797923,-84.262366,,,,,0
12159,,FREE PIKE @ BRUMBAUGH BLVD,,39.797885,-84.267958,,,,,0
12162,,DENLINGER RD @ 3656 DENLINGER RD,Denlinger Rd & Aenora Dr,39.799956,-84.273245,,,,,0
12163,,DENLINGER RD @ NATALIE CT,Denlinger Rd & Natalie Ct,39.801829,-84.27331,,,,,0
12164,,DENLINGER RD @ THORAIN CT,Denlinger Rd & Thorain Ct,39.804435,-84.273459,,,,,0
12165,,DENLINGER RD @ JOHN WOLFE PARK,,39.806548,-84.273604,,,,,0
12166,,DENLINGER RD @ MARIA JOSEPH,,39.811513,-84.273745,,,,,0
12167,,DENLINGER RD @ SALEM PIKE,Denlinger Rd & Unnamed,39.814207,-84.273663,,,,,0
12168,,DENLINGER RD @ FRANK'S NURSERY,Denlinger Rd & Unnamed,39.81667,-84.273682,,,,,0
12170,,DENLINGER RD @ BERQUIST DR,Denlinger Rd & Bloomfield Dr,39.824237,-84.273916,,,,,0
12171,,FRIENDSHIP VILLAGE,,39.828838,-84.274026,,,,,0
12172,,DENLINGER RD @ WESTBROOK RD,,39.832703,-84.273065,,,,,0
12177,,FAR HILLS AV @ 5112 FAR HILLS AV,,39.671882,-84.163815,,,,,0
12178,,FAR HILLS AV @ ENID AV,,39.674323,-84.16467,,,,,0
12179,,FAR HILLS AV @ LAURELANN DR,,39.677019,-84.165446,,,,,0
12180,,FAR HILLS AV @ WESTGATE DR,,39.679603,-84.166121,,,,,0
12181,,FAR HILLS AV @ DAVID RD,,39.68132,-84.166562,,,,,0
12182,,FAR HILLS AV @ SHROYER RD,,39.683771,-84.167111,,,,,0
12183,,FAR HILLS AV @ 4300 FAR HILLS AV,,39.685383,-84.167771,,,,,0
12184,,FAR HILLS AV @ MOSSOAK DR,,39.687144,-84.168236,,,,,0
12185,,FAR HILLS AV @ STROOP RD,,39.688754,-84.168466,,,,,0
12187,,E 1ST ST @ PATTERSON BLVD,E 1st St & N Patterson Blvd,39.763148,-84.187502,,,,,0
12188,,E 1ST ST @ RIVER CORRIDOR DR  A,E FIRST ST & RACE ST,39.763313,-84.186215,,,,,0
12189,,E 1ST ST @ SEARS ST,E FIRST ST & SEARS ST,39.763654,-84.184084,,,,,0
12194,,WEBSTER ST @ HERMAN AV,Webster St & Herbert St,39.771353,-84.183322,,,,,0
12195,,WEBSTER ST @ HERBERT ST,Webster St & Taylor St,39.772308,-84.183253,,,,,0
12198,,N KEOWEE ST @ HUNTER AV,,39.777395,-84.18411,,,,,0
12201,,N KEOWEE ST @ 1496 N KEOWEE ST,,39.784844,-84.188882,,,,,0
12202,,KEOWEE & STANLEY,N Keowee St & Stanley Av,39.78643,-84.188613,,,,,0
12203,,N DIXIE DR @ OME AV,,39.791248,-84.190307,,,,,0
12204,,N DIXIE DR @ NEVA DR,,39.793973,-84.191249,,,,,0
12205,,N DIXIE DR @ BERWYCK AV,,39.795985,-84.191945,,,,,0
12206,,N DIXIE DR @ SIEBENTHALER AV,,39.800186,-84.193852,,,,,0
12208,,N DIXIE DR @ MAPLE GROVE DR,,39.802818,-84.194854,,,,,0
12210,,N DIXIE DR @ KEENAN AV,,39.806071,-84.19603,,,,,0
12220,,WEBSTER ST @ PRODUCTION CT,Webster St & Production Ct,39.822716,-84.179268,,,,,0
12221,,WEBSTER ST @ OBCO CT,Webster St & Ashcraft Rd,39.825964,-84.179344,,,,,0
12222,,WEBSTER ST @ NORDIC RD,Webster St & Nordic Rd,39.828133,-84.179406,,,,,0
12223,,WEBSTER ST @ 6192 WEBSTER ST,Webster St & Stop Eight Rd,39.832068,-84.179495,,,,,0
12224,,STOP EIGHT RD @ VENTOR RD,,39.834637,-84.182598,,,,,0
12225,,STOP EIGHT RD @ 3345 STOP EIGHT,,39.834595,-84.185477,,,,,0
12227,,POE AV @ WYSE RD,Poe Av & Wyse Rd,39.841582,-84.188954,,,,,0
12228,,POE AV @ 6520 POE AV,Poe Av & Space Dr,39.843117,-84.189004,,,,,0
12229,,POE AV @ SPACE DR,Poe Av & Space Dr,39.844937,-84.189054,,,,,0
12230,,POE AV @ HOMESTRETCH RD,Poe Av & Homestretch Rd,39.848721,-84.189143,,,,,0
12231,,POE AV @ PARK CENTER DR,Poe Av & Unnamed,39.850711,-84.18917,,,,,0
12232,,MILLER LN @ KNIGHTS INN,,39.854674,-84.192073,,,,,0
12233,,MILLER LN @ MAXTON RD,,39.850852,-84.192022,,,,,0
12236,,MILLER LN @ OTSEGO DR,,39.837863,-84.192194,,,,,0
12237,,MILLER LN @ STOP EIGHT RD,,39.834596,-84.192012,,,,,0
12238,,STOP EIGHT RD @ 3350 STOP EIGHT,Stop Eight Rd & Ventor Rd,39.834382,-84.186796,,,,,0
12239,,HELENA ST @ MCCOOK AV,MCCOOK AVE & E HELENA ST,39.779879,-84.192816,,,,,0
12241,,N KEOWEE ST @ LEO ST,,39.78303,-84.189654,,,,,0
12242,,STOP EIGHT RD @ 3488 STOP EIGHT,Stop Eight Rd & Ventor Rd,39.83443,-84.183189,,,,,0
12243,,STOP EIGHT RD @ WEBSTER ST,Stop Eight Rd & Webster St,39.834469,-84.179758,,,,,0
12244,,WEBSTER ST @ THUNDERHAWK CT,Webster St & Stop Eight Rd,39.831568,-84.179706,,,,,0
12245,,WEBSTER ST @ NORDIC RD,Webster St & Nordic Rd,39.828275,-84.17963,,,,,0
12246,,WEBSTER ST @ 5701 WEBSTER ST,,39.826298,-84.179647,,,,,0
12247,,WEBSTER ST @ PRODUCTION CT,,39.823066,-84.179582,,,,,0
12248,,WEBSTER ST @ NEEDMORE/WRIGHT BRO,,39.820316,-84.179559,,,,,0
12260,,N DIXIE DR @ HILLSDALE AV,,39.804877,-84.195876,,,,,0
12261,,N DIXIE DR @ MAPLEGROVE AV,,39.802819,-84.195093,,,,,0
12262,,N DIXIE DR @ SIEBENTHALER AV,N DIXIE DR & E SIEBENTHALER AVE,39.800564,-84.194125,,,,,0
12264,,N DIXIE DR @ NEVA DR,,39.793862,-84.191409,,,,,0
12265,,N DIXIE DR @ DRILL AV,,39.791612,-84.19063,,,,,0
12267,,KEOWEE & STANLEY,1501 N DIXIE DR,39.785882,-84.188882,,,,,0
12271,,N KEOWEE ST @ HALL AV,,39.779368,-84.186136,,,,,0
12272,,N KEOWEE ST @ HUNTER AV,,39.777361,-84.184254,,,,,0
12275,,WEBSTER ST @ HERBERT ST,WEBSTER ST & HERBERT AVE,39.773097,-84.183404,,,,,0
12280,,E MONUMENT AV @ WEBSTER ST,,39.7656,-84.182603,,,,,0
12281,,E MONUMENT AV @ SEARS ST,,39.76525,-84.184197,,,,,0
12282,,N ST CLAIR ST @ E 1ST ST,N Saint Clair St & E 1st St,39.763057,-84.189233,,,,,0
12283,,N ST CLAIR ST @ E 2ND ST,,39.761186,-84.188664,,,,,0
12286,,HELENA ST @ MCCOOK AV,E Helena St & Unnamed,39.779777,-84.19256,,,,,0
12333,,OTTERBEIN AV @ CATALPA DR,,39.781294,-84.225279,,,,,0
12334,,CATALPA DR @ HARVARD BLVD,Catalpa Dr & Harvard Blvd,39.779142,-84.22558,,,,,0
12335,,CATALPA DR @ CORNELL DR,Catalpa Dr & Cornell Dr,39.77676,-84.225493,,,,,0
12336,,ROSEDALE DR @ ACADEMY PL,,39.774869,-84.226738,,,,,0
12337,,ROSEDALE DR @ PRINCETON DR,,39.772786,-84.227145,,,,,0
12338,,ROSEDALE DR @ AMBERLY DR,,39.771435,-84.226791,,,,,0
12339,,ROSEDALE DR @ CAMBRIDGE AV,Rosedale Dr & Cambridge Av,39.769681,-84.226761,,,,,0
12340,,ROSEDALE DR @ LEXINGTON,Rosedale Dr & Lexington Av,39.767959,-84.226757,,,,,0
12341,,ROSEDALE DR @ GRAND AV,Rosedale Dr & W Grand Av,39.766888,-84.226731,,,,,0
12342,,ROSEDALE DR @ SUPERIOR AV,Rosedale Dr & Superior Av,39.765415,-84.226716,,,,,0
12343,,ROSEDALE DR @ RIVERVIEW AV,Rosedale Dr & W Riverview Av,39.763461,-84.226688,,,,,0
12346,,S PAUL LAWRENCE DUNB @ 215 S PAU,S Summit St & W 5th St,39.751049,-84.218229,,,,,0
12347,,S PAUL LAWRENCE DUNB @ HOME AV,S Summit St & Boyer St,39.749898,-84.218215,,,,,0
12348,,S PAUL LAWRENCE DUNB @ LEROY ST,S Summit St & Leroy St,39.748461,-84.218129,,,,,0
12349,,PAUL LAWRENCE DUNB @ GERMANTOWN,S Summit St & Germantown St,39.746686,-84.217902,,,,,0
12350,,S PAUL LAWRENCE DUNB @ BANKER ST,S Summit St & Unnamed,39.744321,-84.217744,,,,,0
12351,,S PAUL LAWRENCE DUNB @ STEINER A,S Summit St & Steiner Av,39.742634,-84.217729,,,,,0
12352,,DANNER AV @ MIAMI CHAPEL RD,,39.737818,-84.222143,,,,,0
12354,,NICHOLAS RD @ 2027 NICHOLAS RD,,39.732553,-84.22882,,,,,0
12359,,RICHLEY AV @ CLEMENT,,39.736155,-84.228681,,,,,0
12360,,RICHLEY AV @ DANNER AV,,39.736208,-84.224688,,,,,0
12363,,DANNER AV @ TAMPA AV,,39.740054,-84.222061,,,,,0
12365,,W STEWART ST @ 1462 W STEWART ST,,39.741691,-84.219533,,,,,0
12366,,S PAUL LAWRENCE DUNB @ STEINER A,,39.742052,-84.217472,,,,,0
12367,,S PAUL LAWRENCE DUNB @ BANCROFT,,39.744097,-84.217512,,,,,0
12368,,PAUL LAWRENCE DUNB @ GERMANTOWN,,39.746824,-84.217754,,,,,0
12369,,S PAUL LAWRENCE DUNB @ WESTDALE,,39.748918,-84.217908,,,,,0
12370,,S PAUL LAWRENCE DUNB @ HOME AV,,39.750878,-84.218076,,,,,0
12371,,S PAUL LAWRENCE DUNB @ 220 S PAU,S Summit St & W 5th St,39.752281,-84.21802,,,,,0
12375,,ROSEDALE DR @ SUPERIOR AV,,39.765242,-84.226488,,,,,0
12376,,ROSEDALE DR @ GRAND AV,,39.766752,-84.226545,,,,,0
12377,,ROSEDALE DR @ LEXINGTON,,39.76777,-84.226579,,,,,0
12378,,ROSEDALE DR @ CAMBRIDGE AV,,39.769601,-84.226585,,,,,0
12379,,ROSEDALE DR @ AMBERLY DR,,39.771331,-84.226632,,,,,0
12380,,ROSEDALE DR @ PRINCETON DR,,39.773127,-84.227073,,,,,0
12381,,ROSEDALE DR @ ACADEMY PL,,39.774714,-84.226748,,,,,0
12382,,CATALPA DR @ CORNELL DR,,39.776426,-84.225327,,,,,0
12383,,CATALPA DR @ HARVARD BLVD,,39.778994,-84.225424,,,,,0
12384,,CATALPA DR @ OTTERBEIN AV,,39.780839,-84.225446,,,,,0
12394,,DENLINGER RD @ 5787 DENLINGER RD,DENLINGER RD & FILBURN LN,39.829104,-84.274328,,,,,0
12395,,DENLINGER RD @ BLOOMFIELD DR,,39.824187,-84.274207,,,,,0
12397,,SALEM AV @ 5120 SALEM AV,,39.817381,-84.277276,,,,,0
12399,,SALEM AV @ DENLINGER RD,Hwy 49 & Denlinger Rd,39.816417,-84.275473,,,,,0
12400,,DENLINGER RD @ 4501 DENLINGER RD,DENLINGER RD & SALEM CITY DR,39.814406,-84.273932,,,,,0
12401,,DENLINGER RD @ BEHIND MARIA JOSE,,39.811526,-84.273809,,,,,0
12402,,DENLINGER RD @ 4021 DENLINGER RD,,39.806554,-84.27373,,,,,0
12403,,DENLINGER RD @ THORAIN CT,,39.80464,-84.273641,,,,,0
12404,,DENLINGER RD @ NATALIE CT,,39.802157,-84.273547,,,,,0
12405,,DENLINGER RD @ FREE PIKE,,39.799224,-84.273444,,,,,0
12407,,FREE PIKE @ BRUMBRAUGH BLVD,,39.797755,-84.267436,,,,,0
12409,,FREE PIKE @ ARLENE AV,FREE PIKE & ARLENE AVE,39.797825,-84.26256,,,,,0
12410,,FREE PIKE @ FAIR LN,Free Pike & Fair Ln,39.797781,-84.260348,,,,,0
12411,,FREE PIKE @ ENGLAND AV,Free Pike & England Av,39.797793,-84.258345,,,,,0
12412,,FREE PIKE @ N GETTYSBURG AV,,39.797586,-84.25525,,,,,0
12413,,N GETTYSBURG AV @ HOLYOKE AV,,39.794876,-84.253908,,,,,0
12414,,N GETTYSBURG AV @ GOTHAM AV,,39.792753,-84.253895,,,,,0
12415,,N GETTYSBURG AV @ HILLCREST AV,,39.790841,-84.253905,,,,,0
12416,,N GETTYBURG AV @ ST JAMES AV,,39.789228,-84.253891,,,,,0
12417,,N GETTYSBURG AV @ PRESCOTT AV,,39.78628,-84.253856,,,,,0
12418,,N GETTYSBURG AV @ GENESEE AV,,39.784828,-84.253895,,,,,0
12419,,N GETTYSBURG AV @ CORNELL DR,N GETTYSBURG AVE & RAMP,39.777706,-84.253776,,,,,0
12420,,N GETTYSBURG AV @ LITTLE RICHMON,,39.775866,-84.253918,,,,,0
12422,,N GETTYSBURG AV @ FRUEDENBERGER,,39.768621,-84.253571,,,,,0
12423,,N GETTYSBURG AV @ DANRIDGE AV,,39.765791,-84.253481,,,,,0
12424,,N GETTYSBURG AV @ FAIRBANKS AV,,39.763815,-84.253463,,,,,0
12425,,N GETTYSBURG AV @ HOOVER AV,,39.761738,-84.253415,,,,,0
12426,,N GETTYSBURG AV @ KAMMER AV,,39.759653,-84.253398,,,,,0
12427,,N GETTYSBURG AV @ OAKRIDGE DR,,39.758019,-84.253341,,,,,0
12428,,N GETTYSBURG AV @ EDISON ST,,39.756314,-84.253325,,,,,0
12429,,N GETTYSBURG AV @ W 2ND ST,,39.754621,-84.253287,,,,,0
12430,,N GETTYSBURG AV @ VERONA RD,N Gettysburg Av & Verona Dr,39.75334,-84.25328,,,,,0
12431,,N GETTYSBURG AV @ FRANCES AV,,39.750883,-84.25319,,,,,0
12445,,CONVENANT HOUSE DR @ 4911 CONVEN,Covenant House Dr,39.814528,-84.279204,,,,,0
12446,,CONVENANT HOUSE RD @ JEWISH FEDERATION,Covenant House Dr,39.816018,-84.279138,,,,,0
12447,,CONVENANT HOUSE @ CONVENANT MANO,,39.815981,-84.279427,,,,,0
12448,,COVENANT HOUSE @ JEWISH FEDERATION,,39.814583,-84.27939,,,,,0
12449,,JEWISH CENTER DR @ COMMUNITY CEN,Covenant House Dr & Unnamed,39.81421,-84.277459,,,,,0
12450,,1ST & CENTRAL,STOLZ AVE,39.641157,-84.287878,,,,,0
12462,,HEINCKE RD @ BELVO RD,,39.62946,-84.265848,,,,,0
12468,,CENTRAL AV @ 1244 CENTRAL AV,E Central Av & Hwy 725,39.6406,-84.267804,,,,,0
12469,,CENTRAL AV @ HEINCKE RD,,39.640083,-84.265148,,,,,0
12471,,LEITER RD @ SYCAMORE HOSPITAL,LEITER RD & ALMOND AVE,39.638499,-84.249818,,,,,0
12472,,LEITER RD @ 2150 LEITER RD,LEITER RD & ALMOND AVE,39.638208,-84.247418,,,,,0
12473,,LEITER RD @ SYCAMORE GLEN DR,LEITER RD & ALMOND AVE,39.637719,-84.245771,,,,,0
12475,,STATE HWY 725 @ IMPERIAL RD,,39.64022,-84.238826,,,,,0
12478,,STATE HWY 725 @ 2146 STATE HWY 7,,39.634016,-84.209029,,,,,0
12479,,STATE HWY 725 @ SOUTHWIND,Hwy 725 & Miamisburg Centerville Rd,39.633643,-84.206438,,,,,0
12480,,STATE HWY 725 @ LYONS RD,,39.629471,-84.193515,,,,,0
12481,,STATE HWY 725 @ MCEWEN RD,Pike Centerville Rd & Hwy 725,39.627825,-84.188934,,,,,0
12482,,STATE HWY 725 @ TIMBERLODGE TRL,Hwy 725 & Timberlodge Tr,39.627437,-84.184289,,,,,0
12483,,STATE HWY 725 @ PARAGON RD,,39.627592,-84.181198,,,,,0
12484,,STATE HWY 725 @ CONGRESS PARK DR,,39.627716,-84.176755,,,,,0
12485,,STATE HWY 725 @ 588 STATE HWY 72,,39.627794,-84.173684,,,,,0
12486,,STATE HWY 725 @ MILLER FARM LN,,39.627911,-84.170441,,,,,0
12487,,E FRANKLIN ST @ GERSHWIN DR,,39.628011,-84.167751,,,,,0
12488,,E FRANKLIN ST @ HAMPTON RD,,39.628098,-84.165556,,,,,0
12489,,E FRANKLIN ST @ VIRGINIA AV,W Franklin St & Virginia Av,39.628115,-84.163812,,,,,0
12491,,E FRANKLIN ST @ STATE HWY 48,E Franklin St & Hwy 48,39.628261,-84.158475,,,,,0
12492,,E FRANKLIN ST @ EAST DR,E Franklin St & East Av,39.628299,-84.155841,,,,,0
12493,,E FRANKLIN ST @ CEMETERY DR,E Franklin St & Cemetery Dr,39.628461,-84.15349,,,,,0
12494,,E FRANKLIN ST @ JOHANNA DR,E Franklin St & Johanna Dr,39.628561,-84.15074,,,,,0
12495,,E FRANKLIN ST @ LAKE GLEN CT,E Franklin St & Unnamed,39.628546,-84.146719,,,,,0
12496,,E FRANKLIN ST @ WESTPARK RD,E Franklin St & W Park Rd,39.628476,-84.144332,,,,,0
12497,,E FRANKLIN ST @ SOUTH SUBURBAN R,E Franklin St & S Suburban Rd,39.628389,-84.141417,,,,,0
12498,,CLYO RD @ E FRANKLIN ST,,39.628947,-84.13926,,,,,0
12499,,CLYO RD @ MILLERTON DR,,39.63261,-84.139007,,,,,0
12500,,CLYO RD @ BLACK OAK DR,,39.634281,-84.138887,,,,,0
12501,,CLYO RD @ DEER RUN RD,,39.637908,-84.138544,,,,,0
12502,,CLYO RD @ AMBRIDGE RD,,39.641495,-84.138247,,,,,0
12503,,CLYO RD @ W ALEX BELL RD,,39.643234,-84.138114,,,,,0
12504,,CLYO RD @ NORWICH LN,,39.644634,-84.137998,,,,,0
12506,,CLYO RD @ CEDAR COVE DR,Unnamed & Millerton Dr,39.647899,-84.13651,,,,,0
12507,,CLYO RD @ TIFTON GREEN TRL,Unnamed & Golf Green Dr,39.648695,-84.132771,,,,,0
12508,,CLYO RD @ GREEN BRANCH DR,Unnamed & Green Branch Dr,39.649036,-84.129926,,,,,0
12509,,BIGGER RD @ THOMAS PAINE PKY,,39.650623,-84.127533,,,,,0
12510,,BIGGER RD @ CARRIAGE DR,Bigger Rd & Carriage Trace Blvd,39.65598,-84.127003,,,,,0
12511,,BIGGER RD @ HEWITT AV,Bigger Rd & Hewitt Av,39.657827,-84.12684,,,,,0
12513,,BIGGER RD @ ANDREW RD,Bigger Rd & E Whipp Rd,39.661414,-84.126526,,,,,0
12515,,STATE HWY 725 @ YANKEE PIKE,,39.630913,-84.198035,,,,,0
12516,,STATE HWY 725 @ WASHINGTON VILLA,,39.630308,-84.196116,,,,,0
12520,,N BROADWAY ST @ 1ST ST,N BROADWAY ST & W 1ST ST,39.757269,-84.214199,,,,,0
12521,,N BROADWAY ST @ DAKOTA ST,,39.759124,-84.214709,,,,,0
12522,,N BROADWAY ST @ RIVERVIEW AV,N BROADWAY ST & W RIVERVIEW AVE,39.761061,-84.214867,,,,,0
12523,,N BROADWAY ST @ EDGEWOOD AV,N Broadway St & Holt St,39.763154,-84.214921,,,,,0
12524,,N BROADWAY ST @ SUPERIOR AV,N Broadway St & Superior Av,39.76493,-84.21496,,,,,0
12525,,N BROADWAY ST @ GRAND AV,N Broadway St & W Grand Av,39.766322,-84.214998,,,,,0
12526,,LEXINGTON AV @ N BROADWAY ST,Lexington Av & Ferguson Av,39.768124,-84.215791,,,,,0
12527,,LEXINGTON AV @ BRYN MAWR DR,,39.768024,-84.217628,,,,,0
12529,,LEXINGTON AV @ EUCLID AV,,39.767978,-84.220706,,,,,0
12530,,LEXINGTON AV @ KUMLER AV,,39.767978,-84.222839,,,,,0
12532,,LEXINGTON AV @ ROSEDALE DR,,39.767904,-84.226381,,,,,0
12533,,LEXINGTON AV @ WINDSOR AV,,39.767896,-84.227981,,,,,0
12535,,LEXINGTON AV @ EVERETT DR,,39.767845,-84.230438,,,,,0
12536,,SENECA DR @ LEXINGTON AV,SENECA DR & LEXINGTON AVE,39.768071,-84.232585,,,,,0
12537,,SENECA DR @ OXFORD AV,SENECA DR & OXFORD AVE,39.769025,-84.232834,,,,,0
12538,,SENECA DR @ HAVERHILL DR,,39.771238,-84.232963,,,,,0
12539,,HAVERHILL DR @ PHILADELPHIA DR,,39.771318,-84.233699,,,,,0
12540,,PHILADELPHIA DR @ PRINCETON DR,Philadelphia Dr & Princeton Dr,39.772117,-84.234246,,,,,0
12541,,PHILADELPHIA DR @ ACADEMY PL,Philadelphia Dr & Academy Pl,39.774205,-84.234286,,,,,0
12543,,PHILADELPHIA DR @ CORNELL DR,Philadelphia Dr & Cornell Dr,39.775775,-84.234337,,,,,0
12545,,PHILADELPHIA DR @ HARVARD BLVD,Philadelphia Dr & Harvard Blvd,39.77914,-84.234439,,,,,0
12546,,PHILADELPHIA DR @ OTTERBEIN AV,,39.780698,-84.234361,,,,,0
12547,,PHILADELPHIA DR @ FOREST GROVE A,,39.78329,-84.234453,,,,,0
12548,,PHILADELPHIA DR @ AUDREY PL,,39.784871,-84.234535,,,,,0
12549,,PHILADELPHIA DR @ TORRINGTON PL,,39.78677,-84.234576,,,,,0
12550,,PHILADELPHIA DR @ SALEM AV,Philadelphia Dr & Salem Av,39.788001,-84.234766,,,,,0
12551,,PHILADELPHIA DR @ SHERWOOD DR,Philadelphia Dr & Sherwood Dr,39.789402,-84.234817,,,,,0
12552,,PHILADELPHIA DR @ HILLCREST AV,Philadelphia Dr & W Hillcrest Av,39.79124,-84.234868,,,,,0
12553,,PHILADELPHIA DR @ HOOK ESTATE DR,Philadelphia Dr & Unnamed,39.794872,-84.234959,,,,,0
12554,,W SIEBENTHALER AV @ PHILADELPHIA,,39.798346,-84.236299,,,,,0
12555,,W SIEBENTHALER AV @ 2900 W SIEBE,,39.798285,-84.238877,,,,,0
12557,,W SIEBENTHALER AV @ 3375 W SIEBE,,39.798241,-84.242178,,,,,0
12558,,KLEPINGER RD @ SIEBENTHALER AV,,39.798514,-84.244762,,,,,0
12560,,KLEPINGER RD @ VALERIE ARMS DR,,39.80094,-84.244726,,,,,0
12561,,KLEPINGER RD @ MICHIGAN AV,,39.802709,-84.244688,,,,,0
12563,,KLEPINGER RD @ HANEY RD,,39.805507,-84.244666,,,,,0
12564,,KLEPINGER RD @ VALERIE DR,,39.807092,-84.24467,,,,,0
12565,,KLEPINGER RD @ 4086 KLEPINGER RD,,39.80935,-84.244734,,,,,0
12567,,KLEPINGER RD @ TURNER RD,,39.813522,-84.244845,,,,,0
12568,,OTTERBIEN AV @ PHILADELPHIA DR,,39.780815,-84.235279,,,,,0
12570,,HARVARD BLVD @ PHILADELPHIA DR,Holmes Av & Philadelphia Dr,39.779222,-84.234943,,,,,0
12571,,TURNER RD @ MERRICK DR,Turner Rd & Klepinger Rd,39.813144,-84.239068,,,,,0
